{"type":"FeatureCollection","features":[{"type":"Feature","properties":{"agglosID":6851.0,"agglosName":"Nouadhibou","ISO3":"MRT","Pop2015":129573.0,"lc_10_fraction":0.00027,"lc_20_fraction":0.00731,"lc_30_fraction":0.0001,"X2015":45.4824638366699,"annual_mean_temp":21.1439609527588,"annual_precipitation":22.8986511230469,"AEZ_NAME":"Tropic - warm / arid","UGS_fraction":0.00768},"geometry":{"type":"Point","coordinates":[-17.034433526503308,20.955847765841065]}},{"type":"Feature","properties":{"agglosID":6802.0,"agglosName":"Nkopola","ISO3":"MWI","Pop2015":51050.0,"lc_10_fraction":0.08646,"lc_20_fraction":0.03201,"lc_30_fraction":0.34117,"X2015":17.9136791229248,"annual_mean_temp":23.6247806549072,"annual_precipitation":851.607604980469,"AEZ_NAME":"Tropic - warm / semiarid","UGS_fraction":0.45963999999999996},"geometry":{"type":"Point","coordinates":[35.14685742455582,-14.337645694590936]}},{"type":"Feature","properties":{"agglosID":6741.0,"agglosName":"Niamey","ISO3":"NER","Pop2015":1071481.0,"lc_10_fraction":0.0235,"lc_20_fraction":0.01277,"lc_30_fraction":0.14076,"X2015":57.0977249145508,"annual_mean_temp":29.5025806427002,"annual_precipitation":477.378204345703,"AEZ_NAME":"Tropic - warm / semiarid","UGS_fraction":0.17703},"geometry":{"type":"Point","coordinates":[2.117638833508044,13.518041798601115]}},{"type":"Feature","properties":{"agglosID":6899.0,"agglosName":"Nyala","ISO3":"SDN","Pop2015":564582.0,"lc_10_fraction":0.00481,"lc_20_fraction":0.01534,"lc_30_fraction":0.21985,"X2015":37.676872253418,"annual_mean_temp":26.961742401123,"annual_precipitation":406.902923583984,"AEZ_NAME":"Tropic - warm / semiarid","UGS_fraction":0.24},"geometry":{"type":"Point","coordinates":[24.881815219842176,12.05390897456981]}},{"type":"Feature","properties":{"agglosID":6869.0,"agglosName":"Nsukka","ISO3":"NGA","Pop2015":1430312.0,"lc_10_fraction":0.83759,"lc_20_fraction":0.01134,"lc_30_fraction":0.03298,"X2015":30.7049007415771,"annual_mean_temp":25.3346366882324,"annual_precipitation":1551.01330566406,"AEZ_NAME":"Tropic - warm / subhumid","UGS_fraction":0.88191},"geometry":{"type":"Point","coordinates":[7.420756364691318,6.852763628828765]}},{"type":"Feature","properties":{"agglosID":7593.0,"agglosName":"Ruwa","ISO3":"ZWE","Pop2015":75079.0,"lc_10_fraction":0.03565,"lc_20_fraction":0.01357,"lc_30_fraction":0.06265,"X2015":20.2729797363281,"annual_mean_temp":17.9699764251709,"annual_precipitation":861.268127441406,"AEZ_NAME":"Tropic - cool / semiarid","UGS_fraction":0.11187},"geometry":{"type":"Point","coordinates":[31.210619899708207,-17.865442495612017]}},{"type":"Feature","properties":{"agglosID":7559.0,"agglosName":"Rubengera","ISO3":"RWA","Pop2015":89838.0,"lc_10_fraction":0.33371,"lc_20_fraction":0.09084,"lc_30_fraction":0.2479,"X2015":40.1360282897949,"annual_mean_temp":19.3324337005615,"annual_precipitation":1254.55065917969,"AEZ_NAME":"Tropic - cool / humid","UGS_fraction":0.67245},"geometry":{"type":"Point","coordinates":[29.348868304729956,-2.080447501971538]}},{"type":"Feature","properties":{"agglosID":7586.0,"agglosName":"Ruru","ISO3":"SDN","Pop2015":18690.0,"lc_10_fraction":0.00113,"lc_20_fraction":0.0007,"lc_30_fraction":0.67665,"X2015":34.9295883178711,"annual_mean_temp":28.1257400512695,"annual_precipitation":623.374389648438,"AEZ_NAME":"Tropic - warm / semiarid","UGS_fraction":0.67848},"geometry":{"type":"Point","coordinates":[33.65423803337587,11.896192531753809]}},{"type":"Feature","properties":{"agglosID":7508.0,"agglosName":"Richard-toll","ISO3":"SEN","Pop2015":60596.0,"lc_10_fraction":0.05572,"lc_20_fraction":0.01707,"lc_30_fraction":0.04091,"X2015":49.2460823059082,"annual_mean_temp":27.513069152832,"annual_precipitation":214.879379272461,"AEZ_NAME":"Tropic - warm / arid","UGS_fraction":0.1137},"geometry":{"type":"Point","coordinates":[-15.66863245159336,16.460987424380318]}},{"type":"Feature","properties":{"agglosID":7673.0,"agglosName":"Saint-louis","ISO3":"SEN","Pop2015":222043.0,"lc_10_fraction":0.02302,"lc_20_fraction":0.01527,"lc_30_fraction":0.07476,"X2015":50.039478302002,"annual_mean_temp":25.2540588378906,"annual_precipitation":253.375076293945,"AEZ_NAME":"Tropic - warm / arid","UGS_fraction":0.11304999999999999},"geometry":{"type":"Point","coordinates":[-16.490469857237945,16.023758921099174]}},{"type":"Feature","properties":{"agglosID":7356.0,"agglosName":"Port elizabeth","ISO3":"ZAF","Pop2015":788204.0,"lc_10_fraction":0.09048,"lc_20_fraction":0.00654,"lc_30_fraction":0.19858,"X2015":8.82479095458984,"annual_mean_temp":17.9500865936279,"annual_precipitation":553.706298828125,"AEZ_NAME":"Subtropic - warm / subhumid","UGS_fraction":0.29560000000000005},"geometry":{"type":"Point","coordinates":[25.55241283431416,-33.91382907786226]}},{"type":"Feature","properties":{"agglosID":7357.0,"agglosName":"Port harcourt","ISO3":"NGA","Pop2015":1845232.0,"lc_10_fraction":0.13114,"lc_20_fraction":0.00018,"lc_30_fraction":0.13234,"X2015":51.6720275878906,"annual_mean_temp":26.5672492980957,"annual_precipitation":2755.66064453125,"AEZ_NAME":"Tropic - warm / humid","UGS_fraction":0.26366},"geometry":{"type":"Point","coordinates":[6.995908363227225,4.829793286385716]}},{"type":"Feature","properties":{"agglosID":7268.0,"agglosName":"Palapye","ISO3":"BWA","Pop2015":40874.0,"lc_10_fraction":0.04557,"lc_20_fraction":0.32132,"lc_30_fraction":0.0149,"X2015":14.7531385421753,"annual_mean_temp":20.4110927581787,"annual_precipitation":397.771545410156,"AEZ_NAME":"Tropic - warm / arid","UGS_fraction":0.38179},"geometry":{"type":"Point","coordinates":[27.118214539436634,-22.54176789240939]}},{"type":"Feature","properties":{"agglosID":7457.0,"agglosName":"Rabat","ISO3":"MAR","Pop2015":1925479.0,"lc_10_fraction":0.09605,"lc_20_fraction":0.00906,"lc_30_fraction":0.10284,"X2015":18.8795413970947,"annual_mean_temp":17.2866744995117,"annual_precipitation":496.021392822266,"AEZ_NAME":"Subtropic - warm / subhumid","UGS_fraction":0.20795},"geometry":{"type":"Point","coordinates":[-6.832502661065083,33.97761900368787]}},{"type":"Feature","properties":{"agglosID":7461.0,"agglosName":"Rahama","ISO3":"NGA","Pop2015":85080.0,"lc_10_fraction":0.00439,"lc_20_fraction":0.00447,"lc_30_fraction":0.11347,"X2015":94.0945205688477,"annual_mean_temp":24.2074394226074,"annual_precipitation":1152.67822265625,"AEZ_NAME":"Tropic - warm / semiarid","UGS_fraction":0.12233},"geometry":{"type":"Point","coordinates":[8.68601512222119,10.419122665764917]}},{"type":"Feature","properties":{"agglosID":7417.0,"agglosName":"Qasr khiyar (قصر خيار)","ISO3":"LBY","Pop2015":29565.0,"lc_10_fraction":0.05494,"lc_20_fraction":0.00687,"lc_30_fraction":0.44847,"X2015":13.7370929718018,"annual_mean_temp":20.2812099456787,"annual_precipitation":287.066619873047,"AEZ_NAME":"Subtropic - warm / semiarid","UGS_fraction":0.51028},"geometry":{"type":"Point","coordinates":[13.860182845050172,32.69377269858316]}},{"type":"Feature","properties":{"agglosID":3719.0,"agglosName":"Madina al-masna'a (sugar complex)","ISO3":"SDN","Pop2015":23582.0,"lc_10_fraction":0.03317,"lc_20_fraction":0.00011,"lc_30_fraction":0.25092,"X2015":41.6711959838867,"annual_mean_temp":28.9344787597656,"annual_precipitation":213.536590576172,"AEZ_NAME":"Tropic - warm / arid","UGS_fraction":0.28419999999999998},"geometry":{"type":"Point","coordinates":[35.55229804155212,15.476086734069467]}},{"type":"Feature","properties":{"agglosID":3743.0,"agglosName":"Harare","ISO3":"ZWE","Pop2015":2272905.0,"lc_10_fraction":0.23391,"lc_20_fraction":0.02688,"lc_30_fraction":0.10307,"X2015":20.4544315338135,"annual_mean_temp":18.5462875366211,"annual_precipitation":824.994384765625,"AEZ_NAME":"Tropic - cool / semiarid","UGS_fraction":0.36386},"geometry":{"type":"Point","coordinates":[30.997649029098328,-17.88102954826639]}},{"type":"Feature","properties":{"agglosID":3848.0,"agglosName":"Huw","ISO3":"EGY","Pop2015":406775.0,"lc_10_fraction":0.10398,"lc_20_fraction":0.01688,"lc_30_fraction":0.00036,"X2015":50.0839500427246,"annual_mean_temp":23.9570846557617,"annual_precipitation":1.7663688659668,"AEZ_NAME":"Subtropic - warm / arid","UGS_fraction":0.12122},"geometry":{"type":"Point","coordinates":[32.16374042421705,26.04952488638591]}},{"type":"Feature","properties":{"agglosID":3853.0,"agglosName":"Ibadan","ISO3":"NGA","Pop2015":3088477.0,"lc_10_fraction":0.17034,"lc_20_fraction":0.01894,"lc_30_fraction":0.08576,"X2015":38.084587097168,"annual_mean_temp":26.5933589935303,"annual_precipitation":1318.82653808594,"AEZ_NAME":"Tropic - warm / subhumid","UGS_fraction":0.27504},"geometry":{"type":"Point","coordinates":[3.943737626188288,7.426366392275257]}},{"type":"Feature","properties":{"agglosID":4544.0,"agglosName":"Kapoya/kasembe","ISO3":"ZMB","Pop2015":26486.0,"lc_10_fraction":0.00205,"lc_20_fraction":0.00438,"lc_30_fraction":0.2079,"X2015":32.6826438903809,"annual_mean_temp":24.5262336730957,"annual_precipitation":1115.46203613281,"AEZ_NAME":"Tropic - warm / subhumid","UGS_fraction":0.21433},"geometry":{"type":"Point","coordinates":[29.026274826839037,-8.54226435149262]}},{"type":"Feature","properties":{"agglosID":4671.0,"agglosName":"Kayes","ISO3":"MLI","Pop2015":176849.0,"lc_10_fraction":0.02101,"lc_20_fraction":0.04715,"lc_30_fraction":0.15433,"X2015":52.2362327575684,"annual_mean_temp":29.6657524108887,"annual_precipitation":610.900756835938,"AEZ_NAME":"Tropic - warm / semiarid","UGS_fraction":0.22249},"geometry":{"type":"Point","coordinates":[-11.444742547878786,14.442405462525642]}},{"type":"Feature","properties":{"agglosID":4641.0,"agglosName":"Katete","ISO3":"ZMB","Pop2015":22976.0,"lc_10_fraction":0.03359,"lc_20_fraction":0.04337,"lc_30_fraction":0.16635,"X2015":19.2601985931396,"annual_mean_temp":21.563196182251,"annual_precipitation":1047.90795898438,"AEZ_NAME":"Tropic - warm / semiarid","UGS_fraction":0.24331},"geometry":{"type":"Point","coordinates":[32.04700854662792,-14.07428587630502]}},{"type":"Feature","properties":{"agglosID":4579.0,"agglosName":"Karoi","ISO3":"ZWE","Pop2015":18236.0,"lc_10_fraction":0.3933,"lc_20_fraction":0.10462,"lc_30_fraction":0.13612,"X2015":20.5457649230957,"annual_mean_temp":19.7271347045898,"annual_precipitation":799.858581542969,"AEZ_NAME":"Tropic - cool / semiarid","UGS_fraction":0.6340399999999999},"geometry":{"type":"Point","coordinates":[29.689748448486456,-16.81712581948234]}},{"type":"Feature","properties":{"agglosID":4289.0,"agglosName":"Kadoma","ISO3":"ZWE","Pop2015":100215.0,"lc_10_fraction":0.17389,"lc_20_fraction":0.10669,"lc_30_fraction":0.08082,"X2015":18.5289764404297,"annual_mean_temp":21.8703784942627,"annual_precipitation":728.653442382812,"AEZ_NAME":"Tropic - warm / semiarid","UGS_fraction":0.3614},"geometry":{"type":"Point","coordinates":[29.913466253989115,-18.335641478694727]}},{"type":"Feature","properties":{"agglosID":4292.0,"agglosName":"Kaduqli","ISO3":"SDN","Pop2015":78329.0,"lc_10_fraction":0.0324,"lc_20_fraction":0.01167,"lc_30_fraction":0.49863,"X2015":30.0051383972168,"annual_mean_temp":28.351978302002,"annual_precipitation":673.242858886719,"AEZ_NAME":"Tropic - warm / semiarid","UGS_fraction":0.5427},"geometry":{"type":"Point","coordinates":[29.71784758844143,10.998938967403117]}},{"type":"Feature","properties":{"agglosID":4198.0,"agglosName":"Jrada","ISO3":"MAR","Pop2015":43475.0,"lc_10_fraction":0.02226,"lc_20_fraction":0.01146,"lc_30_fraction":0.02759,"X2015":16.1013660430908,"annual_mean_temp":14.6247701644897,"annual_precipitation":351.881011962891,"AEZ_NAME":"Subtropic - cool / semiarid","UGS_fraction":0.06131},"geometry":{"type":"Point","coordinates":[-2.199689485976214,34.30887417785231]}},{"type":"Feature","properties":{"agglosID":4944.0,"agglosName":"Koidu","ISO3":"SLE","Pop2015":138364.0,"lc_10_fraction":0.28871,"lc_20_fraction":0.0018,"lc_30_fraction":0.30259,"X2015":26.4143142700195,"annual_mean_temp":25.2506694793701,"annual_precipitation":2532.38818359375,"AEZ_NAME":"Tropic - warm / subhumid","UGS_fraction":0.5931000000000001},"geometry":{"type":"Point","coordinates":[-10.947894718212425,8.634683029795099]}},{"type":"Feature","properties":{"agglosID":5172.0,"agglosName":"Kwekwe (east)","ISO3":"ZWE","Pop2015":106927.0,"lc_10_fraction":0.20252,"lc_20_fraction":0.05438,"lc_30_fraction":0.03158,"X2015":18.7015895843506,"annual_mean_temp":20.5251808166504,"annual_precipitation":646.411987304688,"AEZ_NAME":"Tropic - cool / semiarid","UGS_fraction":0.28848},"geometry":{"type":"Point","coordinates":[29.844963981529749,-18.918661508446556]}},{"type":"Feature","properties":{"agglosID":5112.0,"agglosName":"Kumasi","ISO3":"GHA","Pop2015":2802344.0,"lc_10_fraction":0.11019,"lc_20_fraction":0.02229,"lc_30_fraction":0.11119,"X2015":32.9675827026367,"annual_mean_temp":26.0095825195312,"annual_precipitation":1363.7109375,"AEZ_NAME":"Tropic - warm / humid","UGS_fraction":0.24367},"geometry":{"type":"Point","coordinates":[-1.626577020274295,6.683222989238304]}},{"type":"Feature","properties":{"agglosID":4746.0,"agglosName":"Khemisset","ISO3":"MAR","Pop2015":133776.0,"lc_10_fraction":0.05016,"lc_20_fraction":0.00982,"lc_30_fraction":0.22927,"X2015":20.6035614013672,"annual_mean_temp":16.9636611938477,"annual_precipitation":510.449859619141,"AEZ_NAME":"Subtropic - warm / subhumid","UGS_fraction":0.28925},"geometry":{"type":"Point","coordinates":[-6.074113568286048,33.82146899750522]}},{"type":"Feature","properties":{"agglosID":4760.0,"agglosName":"Khuma","ISO3":"ZAF","Pop2015":49586.0,"lc_10_fraction":0.00905,"lc_20_fraction":0.00469,"lc_30_fraction":0.16255,"X2015":35.1993713378906,"annual_mean_temp":17.4298229217529,"annual_precipitation":612.534423828125,"AEZ_NAME":"Subtropic - cool / semiarid","UGS_fraction":0.17629},"geometry":{"type":"Point","coordinates":[26.86416254491388,-26.85193693246072]}},{"type":"Feature","properties":{"agglosID":4713.0,"agglosName":"Kénitra","ISO3":"MAR","Pop2015":467121.0,"lc_10_fraction":0.04142,"lc_20_fraction":0.00171,"lc_30_fraction":0.09536,"X2015":17.2566356658936,"annual_mean_temp":17.6688461303711,"annual_precipitation":578.895874023438,"AEZ_NAME":"Subtropic - warm / subhumid","UGS_fraction":0.13849},"geometry":{"type":"Point","coordinates":[-6.593564571278682,34.26220258957028]}},{"type":"Feature","properties":{"agglosID":4740.0,"agglosName":"Khartum","ISO3":"SDN","Pop2015":5264746.0,"lc_10_fraction":0.00791,"lc_20_fraction":0.00087,"lc_30_fraction":0.00304,"X2015":41.5743751525879,"annual_mean_temp":29.6510410308838,"annual_precipitation":116.463935852051,"AEZ_NAME":"Tropic - warm / arid","UGS_fraction":0.01182},"geometry":{"type":"Point","coordinates":[32.53812651127457,15.521995758012852]}},{"type":"Feature","properties":{"agglosID":4920.0,"agglosName":"Kitwe","ISO3":"ZMB","Pop2015":601203.0,"lc_10_fraction":0.15051,"lc_20_fraction":0.0324,"lc_30_fraction":0.09251,"X2015":27.2051525115967,"annual_mean_temp":20.06640625,"annual_precipitation":1261.19030761719,"AEZ_NAME":"Tropic - cool / subhumid","UGS_fraction":0.27542},"geometry":{"type":"Point","coordinates":[28.21173067105586,-12.809053172035466]}},{"type":"Feature","properties":{"agglosID":4899.0,"agglosName":"Kisii","ISO3":"KEN","Pop2015":3407476.0,"lc_10_fraction":0.39787,"lc_20_fraction":0.33683,"lc_30_fraction":0.20093,"X2015":23.6731948852539,"annual_mean_temp":20.2440147399902,"annual_precipitation":1509.16613769531,"AEZ_NAME":"Tropic - cool / humid","UGS_fraction":0.93563},"geometry":{"type":"Point","coordinates":[34.695713265068459,-0.631838532485529]}},{"type":"Feature","properties":{"agglosID":5480.0,"agglosName":"Magbon","ISO3":"NGA","Pop2015":125163.0,"lc_10_fraction":0.12194,"lc_20_fraction":0.02905,"lc_30_fraction":0.30448,"X2015":39.929328918457,"annual_mean_temp":27.076868057251,"annual_precipitation":1423.353515625,"AEZ_NAME":"Tropic - warm / subhumid","UGS_fraction":0.45547},"geometry":{"type":"Point","coordinates":[3.07365972130198,6.53300469466469]}},{"type":"Feature","properties":{"agglosID":5687.0,"agglosName":"Mansur kawti","ISO3":"SDN","Pop2015":48405.0,"lc_10_fraction":0.0401,"lc_20_fraction":0.00401,"lc_30_fraction":0.00115,"X2015":49.252197265625,"annual_mean_temp":28.8545627593994,"annual_precipitation":33.8752250671387,"AEZ_NAME":"Tropic - warm / arid","UGS_fraction":0.045259999999999998},"geometry":{"type":"Point","coordinates":[31.30460697986773,17.99440343497138]}},{"type":"Feature","properties":{"agglosID":5668.0,"agglosName":"Mankesim","ISO3":"GHA","Pop2015":110072.0,"lc_10_fraction":0.21982,"lc_20_fraction":0.00451,"lc_30_fraction":0.17519,"X2015":27.0433483123779,"annual_mean_temp":26.8907947540283,"annual_precipitation":1178.60314941406,"AEZ_NAME":"Tropic - warm / subhumid","UGS_fraction":0.39952},"geometry":{"type":"Point","coordinates":[-1.031761322962518,5.234179767955489]}},{"type":"Feature","properties":{"agglosID":5616.0,"agglosName":"Wesbank","ISO3":"ZAF","Pop2015":42948.0,"lc_10_fraction":0.05979,"lc_20_fraction":0.0011,"lc_30_fraction":0.1444,"X2015":7.13381195068359,"annual_mean_temp":17.7484912872314,"annual_precipitation":518.417602539062,"AEZ_NAME":"Subtropic - warm / subhumid","UGS_fraction":0.20529},"geometry":{"type":"Point","coordinates":[18.730908022071494,-33.4602837068809]}},{"type":"Feature","properties":{"agglosID":5590.0,"agglosName":"Kisumu/mbale/busia/sirari [uga] 3","ISO3":"UGA","Pop2015":79916.0,"lc_10_fraction":0.07569,"lc_20_fraction":0.59985,"lc_30_fraction":0.14803,"X2015":24.0607223510742,"annual_mean_temp":22.2645206451416,"annual_precipitation":1524.55822753906,"AEZ_NAME":"Tropic - warm / humid","UGS_fraction":0.82357},"geometry":{"type":"Point","coordinates":[34.32624433817965,0.63048789301297]}},{"type":"Feature","properties":{"agglosID":5599.0,"agglosName":"Malanje","ISO3":"AGO","Pop2015":469005.0,"lc_10_fraction":0.07605,"lc_20_fraction":0.05121,"lc_30_fraction":0.09006,"X2015":22.71217918396,"annual_mean_temp":21.333179473877,"annual_precipitation":1172.78442382812,"AEZ_NAME":"Tropic - warm / subhumid","UGS_fraction":0.21732},"geometry":{"type":"Point","coordinates":[16.364360336164848,-9.544293988051983]}},{"type":"Feature","properties":{"agglosID":5591.0,"agglosName":"Malaba [uga]","ISO3":"KEN","Pop2015":18605.0,"lc_10_fraction":0.17095,"lc_20_fraction":0.54046,"lc_30_fraction":0.13078,"X2015":25.6517486572266,"annual_mean_temp":22.1958312988281,"annual_precipitation":1327.42016601562,"AEZ_NAME":"Tropic - warm / humid","UGS_fraction":0.8421900000000001},"geometry":{"type":"Point","coordinates":[34.24557946105912,0.96378071245198]}},{"type":"Feature","properties":{"agglosID":5299.0,"agglosName":"Loburo","ISO3":"NGA","Pop2015":269118.0,"lc_10_fraction":0.15827,"lc_20_fraction":0.01264,"lc_30_fraction":0.07165,"X2015":46.1800117492676,"annual_mean_temp":26.8856906890869,"annual_precipitation":1395.97436523438,"AEZ_NAME":"Tropic - warm / subhumid","UGS_fraction":0.24256},"geometry":{"type":"Point","coordinates":[3.418588947971573,6.781529235804475]}},{"type":"Feature","properties":{"agglosID":5309.0,"agglosName":"Lokoja","ISO3":"NGA","Pop2015":333615.0,"lc_10_fraction":0.10941,"lc_20_fraction":0.04548,"lc_30_fraction":0.04354,"X2015":57.389533996582,"annual_mean_temp":27.3940696716309,"annual_precipitation":1178.86083984375,"AEZ_NAME":"Tropic - warm / subhumid","UGS_fraction":0.19843},"geometry":{"type":"Point","coordinates":[6.728789194035716,7.789573556664671]}},{"type":"Feature","properties":{"agglosID":5275.0,"agglosName":"Lilongwe","ISO3":"MWI","Pop2015":1124965.0,"lc_10_fraction":0.11653,"lc_20_fraction":0.03703,"lc_30_fraction":0.0615,"X2015":16.6442890167236,"annual_mean_temp":20.2465476989746,"annual_precipitation":878.715209960938,"AEZ_NAME":"Tropic - warm / semiarid","UGS_fraction":0.21506},"geometry":{"type":"Point","coordinates":[33.75830968324211,-13.981943304979369]}},{"type":"Feature","properties":{"agglosID":5199.0,"agglosName":"Lagos","ISO3":"NGA","Pop2015":11847635.0,"lc_10_fraction":0.06,"lc_20_fraction":0.02199,"lc_30_fraction":0.06396,"X2015":42.0427093505859,"annual_mean_temp":27.1507434844971,"annual_precipitation":1467.64440917969,"AEZ_NAME":"Tropic - warm / subhumid","UGS_fraction":0.14595},"geometry":{"type":"Point","coordinates":[3.192723932810805,6.667774525044013]}},{"type":"Feature","properties":{"agglosID":5398.0,"agglosName":"Lusaka","ISO3":"ZMB","Pop2015":2426689.0,"lc_10_fraction":0.18012,"lc_20_fraction":0.05689,"lc_30_fraction":0.13203,"X2015":19.6743583679199,"annual_mean_temp":20.4178218841553,"annual_precipitation":817.760620117188,"AEZ_NAME":"Tropic - cool / semiarid","UGS_fraction":0.36904000000000006},"geometry":{"type":"Point","coordinates":[28.264211686825296,-15.413491901675802]}},{"type":"Feature","properties":{"agglosID":5331.0,"agglosName":"Luanda","ISO3":"AGO","Pop2015":6979211.0,"lc_10_fraction":0.01386,"lc_20_fraction":0.00343,"lc_30_fraction":0.28938,"X2015":19.5558891296387,"annual_mean_temp":25.4566555023193,"annual_precipitation":529.145935058594,"AEZ_NAME":"Tropic - warm / semiarid","UGS_fraction":0.30667},"geometry":{"type":"Point","coordinates":[13.384933430092449,-8.923933655183449]}},{"type":"Feature","properties":{"agglosID":5333.0,"agglosName":"Luanshya","ISO3":"ZMB","Pop2015":144798.0,"lc_10_fraction":0.1282,"lc_20_fraction":0.06709,"lc_30_fraction":0.21073,"X2015":26.0669364929199,"annual_mean_temp":20.4817066192627,"annual_precipitation":1251.359375,"AEZ_NAME":"Tropic - cool / semiarid","UGS_fraction":0.40602000000000007},"geometry":{"type":"Point","coordinates":[28.423829820541977,-13.147000000000017]}},{"type":"Feature","properties":{"agglosID":5344.0,"agglosName":"Lubumbashi","ISO3":"COD","Pop2015":2077000.0,"lc_10_fraction":0.02753,"lc_20_fraction":0.0155,"lc_30_fraction":0.10948,"X2015":28.8029460906982,"annual_mean_temp":20.7469348907471,"annual_precipitation":1130.67846679688,"AEZ_NAME":"Tropic - cool / subhumid","UGS_fraction":0.15250999999999999},"geometry":{"type":"Point","coordinates":[27.486504562619765,-11.65498236080283]}},{"type":"Feature","properties":{"agglosID":5336.0,"agglosName":"Lubango","ISO3":"AGO","Pop2015":615770.0,"lc_10_fraction":0.03094,"lc_20_fraction":0.20676,"lc_30_fraction":0.03318,"X2015":13.7026243209839,"annual_mean_temp":18.2603378295898,"annual_precipitation":860.425476074219,"AEZ_NAME":"Tropic - cool / semiarid","UGS_fraction":0.27088},"geometry":{"type":"Point","coordinates":[13.492845676275089,-14.902548068371605]}},{"type":"Feature","properties":{"agglosID":1966.0,"agglosName":"Blantyre","ISO3":"MWI","Pop2015":1057790.0,"lc_10_fraction":0.296,"lc_20_fraction":0.07688,"lc_30_fraction":0.04118,"X2015":17.7321491241455,"annual_mean_temp":20.6524753570557,"annual_precipitation":1072.07983398438,"AEZ_NAME":"Tropic - warm / subhumid","UGS_fraction":0.41406},"geometry":{"type":"Point","coordinates":[35.01598904568348,-15.761979529056298]}},{"type":"Feature","properties":{"agglosID":1975.0,"agglosName":"Bobo-dioulasso","ISO3":"BFA","Pop2015":667853.0,"lc_10_fraction":0.026,"lc_20_fraction":0.01836,"lc_30_fraction":0.04844,"X2015":38.5702362060547,"annual_mean_temp":27.3788146972656,"annual_precipitation":982.422790527344,"AEZ_NAME":"Tropic - warm / semiarid","UGS_fraction":0.0928},"geometry":{"type":"Point","coordinates":[-4.303300887125777,11.201361436823344]}},{"type":"Feature","properties":{"agglosID":2009.0,"agglosName":"Boké","ISO3":"GIN","Pop2015":63090.0,"lc_10_fraction":0.19517,"lc_20_fraction":0.18182,"lc_30_fraction":0.07076,"X2015":29.8854522705078,"annual_mean_temp":27.8401699066162,"annual_precipitation":2779.61083984375,"AEZ_NAME":"Tropic - warm / subhumid","UGS_fraction":0.44775000000000006},"geometry":{"type":"Point","coordinates":[-14.278889570286993,10.940325724939232]}},{"type":"Feature","properties":{"agglosID":1639.0,"agglosName":"Banī walīd (بني وليد)","ISO3":"LBY","Pop2015":61498.0,"lc_10_fraction":0.01366,"lc_20_fraction":0.00287,"lc_30_fraction":0.00076,"X2015":22.0033264160156,"annual_mean_temp":20.8372936248779,"annual_precipitation":92.0557403564453,"AEZ_NAME":"Subtropic - warm / arid","UGS_fraction":0.01729},"geometry":{"type":"Point","coordinates":[13.991701525386713,31.779075150257783]}},{"type":"Feature","properties":{"agglosID":1813.0,"agglosName":"Melilla/bni ansar [mar]","ISO3":"MAR","Pop2015":61386.0,"lc_10_fraction":0.02618,"lc_20_fraction":0.05552,"lc_30_fraction":0.35739,"X2015":13.3508548736572,"annual_mean_temp":17.9986915588379,"annual_precipitation":348.893615722656,"AEZ_NAME":"Subtropic - warm / semiarid","UGS_fraction":0.43909},"geometry":{"type":"Point","coordinates":[-2.927885246145899,35.26749727544648]}},{"type":"Feature","properties":{"agglosID":1821.0,"agglosName":"Beni tamou","ISO3":"DZA","Pop2015":65777.0,"lc_10_fraction":0.07226,"lc_20_fraction":0.00962,"lc_30_fraction":0.04599,"X2015":15.3471117019653,"annual_mean_temp":18.1292209625244,"annual_precipitation":708.516357421875,"AEZ_NAME":"Subtropic - warm / subhumid","UGS_fraction":0.12787},"geometry":{"type":"Point","coordinates":[2.820605816589663,36.53834182011154]}},{"type":"Feature","properties":{"agglosID":2478.0,"agglosName":"Cidade de maputo","ISO3":"MOZ","Pop2015":2607026.0,"lc_10_fraction":0.07441,"lc_20_fraction":0.00804,"lc_30_fraction":0.38062,"X2015":13.623459815979,"annual_mean_temp":23.089376449585,"annual_precipitation":752.858825683594,"AEZ_NAME":"Tropic - warm / semiarid","UGS_fraction":0.46307000000000006},"geometry":{"type":"Point","coordinates":[32.5103376107448,-25.782024445743717]}},{"type":"Feature","properties":{"agglosID":2416.0,"agglosName":"Chibuluma","ISO3":"ZMB","Pop2015":54207.0,"lc_10_fraction":0.09108,"lc_20_fraction":0.0699,"lc_30_fraction":0.12624,"X2015":26.9757099151611,"annual_mean_temp":19.6103076934814,"annual_precipitation":1251.57983398438,"AEZ_NAME":"Tropic - cool / subhumid","UGS_fraction":0.28722000000000005},"geometry":{"type":"Point","coordinates":[28.090504343750696,-12.84407991335991]}},{"type":"Feature","properties":{"agglosID":2400.0,"agglosName":"Gisenyi/goma/kisoro/bunagana [zar] 2","ISO3":"COD","Pop2015":70000.0,"lc_10_fraction":0.77576,"lc_20_fraction":0.08704,"lc_30_fraction":0.03938,"X2015":44.0492706298828,"annual_mean_temp":17.6278057098389,"annual_precipitation":1437.75646972656,"AEZ_NAME":"Tropic - cool / humid","UGS_fraction":0.90218},"geometry":{"type":"Point","coordinates":[29.537957009947296,-1.278711665589845]}},{"type":"Feature","properties":{"agglosID":2503.0,"agglosName":"Constantine","ISO3":"DZA","Pop2015":703927.0,"lc_10_fraction":0.08513,"lc_20_fraction":0.00191,"lc_30_fraction":0.10219,"X2015":16.203498840332,"annual_mean_temp":15.3354358673096,"annual_precipitation":631.8466796875,"AEZ_NAME":"Subtropic - warm / subhumid","UGS_fraction":0.18923},"geometry":{"type":"Point","coordinates":[6.608703369199666,36.345139361498329]}},{"type":"Feature","properties":{"agglosID":2505.0,"agglosName":"Cotonou","ISO3":"BEN","Pop2015":1527277.0,"lc_10_fraction":0.0794,"lc_20_fraction":0.04784,"lc_30_fraction":0.15798,"X2015":38.8888206481934,"annual_mean_temp":27.3747749328613,"annual_precipitation":1187.81042480469,"AEZ_NAME":"Tropic - warm / subhumid","UGS_fraction":0.28522000000000005},"geometry":{"type":"Point","coordinates":[2.354880222849282,6.501431639346686]}},{"type":"Feature","properties":{"agglosID":2198.0,"agglosName":"Bukavu/cyangugu [zar]","ISO3":"COD","Pop2015":754000.0,"lc_10_fraction":0.07159,"lc_20_fraction":0.05749,"lc_30_fraction":0.2715,"X2015":40.3922729492188,"annual_mean_temp":18.0327377319336,"annual_precipitation":1591.09411621094,"AEZ_NAME":"Tropic - cool / humid","UGS_fraction":0.40058000000000007},"geometry":{"type":"Point","coordinates":[28.86238675118599,-2.567265712067261]}},{"type":"Feature","properties":{"agglosID":2204.0,"agglosName":"Bulawayo","ISO3":"ZWE","Pop2015":663804.0,"lc_10_fraction":0.22274,"lc_20_fraction":0.13366,"lc_30_fraction":0.04001,"X2015":13.9926462173462,"annual_mean_temp":19.1670265197754,"annual_precipitation":612.6748046875,"AEZ_NAME":"Tropic - cool / semiarid","UGS_fraction":0.39641},"geometry":{"type":"Point","coordinates":[28.57356064433797,-20.15809100575467]}},{"type":"Feature","properties":{"agglosID":2167.0,"agglosName":"Brikama","ISO3":"GMB","Pop2015":112933.0,"lc_10_fraction":0.14069,"lc_20_fraction":0.11856,"lc_30_fraction":0.17439,"X2015":39.712963104248,"annual_mean_temp":26.666202545166,"annual_precipitation":947.792907714844,"AEZ_NAME":"Tropic - warm / semiarid","UGS_fraction":0.43363999999999999},"geometry":{"type":"Point","coordinates":[-16.637625460488687,13.250707769435302]}},{"type":"Feature","properties":{"agglosID":2364.0,"agglosName":"Twaiteka","ISO3":"ZMB","Pop2015":33903.0,"lc_10_fraction":0.04454,"lc_20_fraction":0.04624,"lc_30_fraction":0.14026,"X2015":28.233268737793,"annual_mean_temp":19.2631225585938,"annual_precipitation":1240.63439941406,"AEZ_NAME":"Tropic - cool / subhumid","UGS_fraction":0.23104},"geometry":{"type":"Point","coordinates":[28.0725499775993,-12.631337812655972]}},{"type":"Feature","properties":{"agglosID":2337.0,"agglosName":"Careysburg","ISO3":"LBR","Pop2015":19376.0,"lc_10_fraction":0.16316,"lc_20_fraction":0.00477,"lc_30_fraction":0.54663,"X2015":23.9959621429443,"annual_mean_temp":26.0599060058594,"annual_precipitation":3952.806640625,"AEZ_NAME":"Tropic - warm / humid","UGS_fraction":0.71456},"geometry":{"type":"Point","coordinates":[-10.63064313960648,6.375115570855616]}},{"type":"Feature","properties":{"agglosID":2341.0,"agglosName":"Casablanca","ISO3":"MAR","Pop2015":4182929.0,"lc_10_fraction":0.02708,"lc_20_fraction":0.00591,"lc_30_fraction":0.09412,"X2015":23.2583980560303,"annual_mean_temp":17.542293548584,"annual_precipitation":401.763153076172,"AEZ_NAME":"Subtropic - warm / semiarid","UGS_fraction":0.12711},"geometry":{"type":"Point","coordinates":[-7.624896653847619,33.556724211663659]}},{"type":"Feature","properties":{"agglosID":2333.0,"agglosName":"Cape town","ISO3":"ZAF","Pop2015":3661684.0,"lc_10_fraction":0.11036,"lc_20_fraction":0.01103,"lc_30_fraction":0.17989,"X2015":7.2862958908081,"annual_mean_temp":17.2970714569092,"annual_precipitation":597.003234863281,"AEZ_NAME":"Subtropic - warm / subhumid","UGS_fraction":0.30128},"geometry":{"type":"Point","coordinates":[18.534421261522767,-33.968566423152058]}},{"type":"Feature","properties":{"agglosID":2276.0,"agglosName":"Butajira","ISO3":"ETH","Pop2015":148717.0,"lc_10_fraction":0.04926,"lc_20_fraction":0.11244,"lc_30_fraction":0.01245,"X2015":22.9869747161865,"annual_mean_temp":16.9971485137939,"annual_precipitation":1064.54211425781,"AEZ_NAME":"Tropic - cool / subhumid","UGS_fraction":0.17415},"geometry":{"type":"Point","coordinates":[38.33962542740049,8.078419376187448]}},{"type":"Feature","properties":{"agglosID":2268.0,"agglosName":"Kisumu/mbale/busia/sirari [uga] 2","ISO3":"UGA","Pop2015":432228.0,"lc_10_fraction":0.09608,"lc_20_fraction":0.56224,"lc_30_fraction":0.2188,"X2015":23.5031089782715,"annual_mean_temp":22.2631645202637,"annual_precipitation":1449.91833496094,"AEZ_NAME":"Tropic - warm / humid","UGS_fraction":0.87712},"geometry":{"type":"Point","coordinates":[34.04506363244276,0.395054596650776]}},{"type":"Feature","properties":{"agglosID":2915.0,"agglosName":"Durban","ISO3":"ZAF","Pop2015":3088935.0,"lc_10_fraction":0.41374,"lc_20_fraction":0.01206,"lc_30_fraction":0.20198,"X2015":22.2260494232178,"annual_mean_temp":20.0530014038086,"annual_precipitation":983.504333496094,"AEZ_NAME":"Tropic - warm / subhumid","UGS_fraction":0.62778},"geometry":{"type":"Point","coordinates":[30.998158591716995,-29.857598687663555]}},{"type":"Feature","properties":{"agglosID":2918.0,"agglosName":"Dutse 1","ISO3":"NGA","Pop2015":206887.0,"lc_10_fraction":0.05273,"lc_20_fraction":0.04323,"lc_30_fraction":0.06704,"X2015":131.287780761719,"annual_mean_temp":26.5135116577148,"annual_precipitation":787.003356933594,"AEZ_NAME":"Tropic - warm / semiarid","UGS_fraction":0.16299999999999999},"geometry":{"type":"Point","coordinates":[9.347048666700891,11.69609965523361]}},{"type":"Feature","properties":{"agglosID":3119.0,"agglosName":"Enugu","ISO3":"NGA","Pop2015":905042.0,"lc_10_fraction":0.25722,"lc_20_fraction":0.05119,"lc_30_fraction":0.05813,"X2015":19.0126838684082,"annual_mean_temp":26.8164710998535,"annual_precipitation":1731.57470703125,"AEZ_NAME":"Tropic - warm / subhumid","UGS_fraction":0.36654000000000006},"geometry":{"type":"Point","coordinates":[7.51153915719792,6.437761824201968]}},{"type":"Feature","properties":{"agglosID":3135.0,"agglosName":"Errich","ISO3":"MAR","Pop2015":26493.0,"lc_10_fraction":0.02288,"lc_20_fraction":0.01276,"lc_30_fraction":0.00645,"X2015":23.9010372161865,"annual_mean_temp":16.585147857666,"annual_precipitation":143.987747192383,"AEZ_NAME":"Subtropic - cool / arid","UGS_fraction":0.04209},"geometry":{"type":"Point","coordinates":[-4.561226092650234,32.263955045325378]}},{"type":"Feature","properties":{"agglosID":3094.0,"agglosName":"Embu","ISO3":"KEN","Pop2015":2046897.0,"lc_10_fraction":0.65005,"lc_20_fraction":0.16669,"lc_30_fraction":0.03897,"X2015":18.7618408203125,"annual_mean_temp":18.272777557373,"annual_precipitation":1347.45190429688,"AEZ_NAME":"Tropic - cool / subhumid","UGS_fraction":0.85571},"geometry":{"type":"Point","coordinates":[36.910148484558948,-0.667635362889694]}},{"type":"Feature","properties":{"agglosID":3054.0,"agglosName":"El khroub","ISO3":"DZA","Pop2015":135992.0,"lc_10_fraction":0.01141,"lc_20_fraction":0.00063,"lc_30_fraction":0.07127,"X2015":16.9679660797119,"annual_mean_temp":15.5356225967407,"annual_precipitation":552.149230957031,"AEZ_NAME":"Subtropic - warm / subhumid","UGS_fraction":0.08331},"geometry":{"type":"Point","coordinates":[6.703667404134567,36.25754908008582]}},{"type":"Feature","properties":{"agglosID":3070.0,"agglosName":"El oued","ISO3":"DZA","Pop2015":328427.0,"lc_10_fraction":0.01154,"lc_20_fraction":0.00017,"lc_30_fraction":0.00002,"X2015":24.4952583312988,"annual_mean_temp":21.8040752410889,"annual_precipitation":66.6946716308594,"AEZ_NAME":"Subtropic - warm / arid","UGS_fraction":0.011729999999999999},"geometry":{"type":"Point","coordinates":[6.8126153221318,33.43865456520054]}},{"type":"Feature","properties":{"agglosID":3038.0,"agglosName":"El had","ISO3":"DZA","Pop2015":66869.0,"lc_10_fraction":0.18995,"lc_20_fraction":0.02869,"lc_30_fraction":0.32203,"X2015":13.0689764022827,"annual_mean_temp":16.9516448974609,"annual_precipitation":712.141967773438,"AEZ_NAME":"Subtropic - warm / subhumid","UGS_fraction":0.54067},"geometry":{"type":"Point","coordinates":[4.694327338041576,36.61487875904443]}},{"type":"Feature","properties":{"agglosID":3467.0,"agglosName":"George","ISO3":"ZAF","Pop2015":171961.0,"lc_10_fraction":0.19383,"lc_20_fraction":0.04461,"lc_30_fraction":0.12021,"X2015":8.11062145233154,"annual_mean_temp":17.1056423187256,"annual_precipitation":599.033020019531,"AEZ_NAME":"Subtropic - warm / semiarid","UGS_fraction":0.35864999999999999},"geometry":{"type":"Point","coordinates":[22.472341479778174,-33.9813479302221]}},{"type":"Feature","properties":{"agglosID":3485.0,"agglosName":"Ghardaia","ISO3":"DZA","Pop2015":191316.0,"lc_10_fraction":0.11985,"lc_20_fraction":0.00038,"lc_30_fraction":0.00007,"X2015":20.6266860961914,"annual_mean_temp":21.1992244720459,"annual_precipitation":77.4031295776367,"AEZ_NAME":"Subtropic - warm / arid","UGS_fraction":0.1203},"geometry":{"type":"Point","coordinates":[3.644458836894944,32.502956039595719]}},{"type":"Feature","properties":{"agglosID":3442.0,"agglosName":"Gbenga","ISO3":"NGA","Pop2015":187560.0,"lc_10_fraction":0.17951,"lc_20_fraction":0.18658,"lc_30_fraction":0.07916,"X2015":40.6683044433594,"annual_mean_temp":26.8259124755859,"annual_precipitation":1362.60974121094,"AEZ_NAME":"Tropic - warm / subhumid","UGS_fraction":0.44525000000000006},"geometry":{"type":"Point","coordinates":[3.126487311388289,6.67648903220786]}},{"type":"Feature","properties":{"agglosID":3634.0,"agglosName":"Guercif","ISO3":"MAR","Pop2015":94078.0,"lc_10_fraction":0.15655,"lc_20_fraction":0.00248,"lc_30_fraction":0.01255,"X2015":22.1243381500244,"annual_mean_temp":18.5070304870605,"annual_precipitation":220.95002746582,"AEZ_NAME":"Subtropic - warm / subhumid","UGS_fraction":0.17158},"geometry":{"type":"Point","coordinates":[-3.35073385152031,34.23835843141512]}},{"type":"Feature","properties":{"agglosID":3261.0,"agglosName":"Fonko","ISO3":"ETH","Pop2015":58481.0,"lc_10_fraction":0.06145,"lc_20_fraction":0.16221,"lc_30_fraction":0.01182,"X2015":21.0534820556641,"annual_mean_temp":16.6785526275635,"annual_precipitation":1015.59448242188,"AEZ_NAME":"Tropic - cool / humid","UGS_fraction":0.23548},"geometry":{"type":"Point","coordinates":[37.96207692099337,7.641553758774014]}},{"type":"Feature","properties":{"agglosID":3232.0,"agglosName":"Fes","ISO3":"MAR","Pop2015":1174743.0,"lc_10_fraction":0.05501,"lc_20_fraction":0.01548,"lc_30_fraction":0.05434,"X2015":20.7952270507812,"annual_mean_temp":17.779426574707,"annual_precipitation":531.615173339844,"AEZ_NAME":"Subtropic - warm / subhumid","UGS_fraction":0.12483},"geometry":{"type":"Point","coordinates":[-5.011453062041705,33.986922318913929]}},{"type":"Feature","properties":{"agglosID":3234.0,"agglosName":"Fianarantsoa","ISO3":"MDG","Pop2015":195962.0,"lc_10_fraction":0.04019,"lc_20_fraction":0.06772,"lc_30_fraction":0.16124,"X2015":15.1365556716919,"annual_mean_temp":18.7264175415039,"annual_precipitation":1205.88879394531,"AEZ_NAME":"Tropic - warm / humid","UGS_fraction":0.26915},"geometry":{"type":"Point","coordinates":[47.09408343097115,-21.445847805384866]}},{"type":"Feature","properties":{"agglosID":3165.0,"agglosName":"Evaton","ISO3":"ZAF","Pop2015":784481.0,"lc_10_fraction":0.03643,"lc_20_fraction":0.00459,"lc_30_fraction":0.3151,"X2015":42.7322731018066,"annual_mean_temp":16.1809902191162,"annual_precipitation":660.401245117188,"AEZ_NAME":"Subtropic - cool / semiarid","UGS_fraction":0.35612},"geometry":{"type":"Point","coordinates":[27.848732932957789,-26.53650775003971]}},{"type":"Feature","properties":{"agglosID":3372.0,"agglosName":"Garagus","ISO3":"EGY","Pop2015":91347.0,"lc_10_fraction":0.25378,"lc_20_fraction":0.0058,"lc_30_fraction":0.0,"X2015":49.4582290649414,"annual_mean_temp":24.3798427581787,"annual_precipitation":0.0,"AEZ_NAME":"Subtropic - warm / arid","UGS_fraction":0.25958000000000006},"geometry":{"type":"Point","coordinates":[32.75721329720923,25.87412444221932]}},{"type":"Feature","properties":{"agglosID":3338.0,"agglosName":"Gamalakhe 2","ISO3":"ZAF","Pop2015":53921.0,"lc_10_fraction":0.18084,"lc_20_fraction":0.01019,"lc_30_fraction":0.59555,"X2015":19.0147476196289,"annual_mean_temp":20.5077247619629,"annual_precipitation":1084.88916015625,"AEZ_NAME":"Subtropic - warm / humid","UGS_fraction":0.7865800000000001},"geometry":{"type":"Point","coordinates":[30.360176522665733,-30.782275691119084]}},{"type":"Feature","properties":{"agglosID":3310.0,"agglosName":"Gaborone","ISO3":"BWA","Pop2015":365444.0,"lc_10_fraction":0.10543,"lc_20_fraction":0.17854,"lc_30_fraction":0.01926,"X2015":18.4396018981934,"annual_mean_temp":21.1423530578613,"annual_precipitation":467.814208984375,"AEZ_NAME":"Tropic - warm / semiarid","UGS_fraction":0.30323},"geometry":{"type":"Point","coordinates":[25.872141701724855,-24.621030985923853]}},{"type":"Feature","properties":{"agglosID":3280.0,"agglosName":"Freetown","ISO3":"SLE","Pop2015":1456596.0,"lc_10_fraction":0.10642,"lc_20_fraction":0.00205,"lc_30_fraction":0.19055,"X2015":26.7889175415039,"annual_mean_temp":26.2840919494629,"annual_precipitation":3046.38061523438,"AEZ_NAME":"Tropic - warm / subhumid","UGS_fraction":0.29902},"geometry":{"type":"Point","coordinates":[-13.154570959127178,8.394329706541491]}},{"type":"Feature","properties":{"agglosID":3276.0,"agglosName":"Fqih ben salah","ISO3":"MAR","Pop2015":103662.0,"lc_10_fraction":0.01561,"lc_20_fraction":0.00565,"lc_30_fraction":0.02512,"X2015":24.2380676269531,"annual_mean_temp":18.0316619873047,"annual_precipitation":501.542297363281,"AEZ_NAME":"Subtropic - warm / subhumid","UGS_fraction":0.046380000000000008},"geometry":{"type":"Point","coordinates":[-6.681375271360015,32.50098768922889]}},{"type":"Feature","properties":{"agglosID":8072.0,"agglosName":"Sidi slimane","ISO3":"MAR","Pop2015":94218.0,"lc_10_fraction":0.16404,"lc_20_fraction":0.00962,"lc_30_fraction":0.08747,"X2015":19.5663375854492,"annual_mean_temp":18.5670433044434,"annual_precipitation":477.938140869141,"AEZ_NAME":"Subtropic - warm / subhumid","UGS_fraction":0.26113},"geometry":{"type":"Point","coordinates":[-5.925268851412391,34.27504663542144]}},{"type":"Feature","properties":{"agglosID":8073.0,"agglosName":"Sidi slimane charaa","ISO3":"MAR","Pop2015":30835.0,"lc_10_fraction":0.01157,"lc_20_fraction":0.00375,"lc_30_fraction":0.23354,"X2015":12.2322149276733,"annual_mean_temp":17.8904609680176,"annual_precipitation":329.298767089844,"AEZ_NAME":"Subtropic - warm / semiarid","UGS_fraction":0.24886},"geometry":{"type":"Point","coordinates":[-2.358465395821442,34.904164405176008]}},{"type":"Feature","properties":{"agglosID":43.0,"agglosName":"Abocho (2015)","ISO3":"NGA","Pop2015":24647.0,"lc_10_fraction":0.15465,"lc_20_fraction":0.01998,"lc_30_fraction":0.15713,"X2015":40.7558631896973,"annual_mean_temp":27.1564903259277,"annual_precipitation":1441.64672851562,"AEZ_NAME":"Tropic - warm / subhumid","UGS_fraction":0.33176},"geometry":{"type":"Point","coordinates":[3.036303328645933,6.485730070960095]}},{"type":"Feature","properties":{"agglosID":8043.0,"agglosName":"Sidi amar","ISO3":"DZA","Pop2015":102481.0,"lc_10_fraction":0.10355,"lc_20_fraction":0.01198,"lc_30_fraction":0.09266,"X2015":14.6903734207153,"annual_mean_temp":18.1045761108398,"annual_precipitation":809.922241210938,"AEZ_NAME":"Subtropic - warm / subhumid","UGS_fraction":0.20819000000000002},"geometry":{"type":"Point","coordinates":[7.712041833942378,36.8078801355525]}},{"type":"Feature","properties":{"agglosID":17.0,"agglosName":"Abakaliki","ISO3":"NGA","Pop2015":354397.0,"lc_10_fraction":0.21962,"lc_20_fraction":0.13609,"lc_30_fraction":0.07027,"X2015":33.0333557128906,"annual_mean_temp":27.5801906585693,"annual_precipitation":1920.61437988281,"AEZ_NAME":"Tropic - warm / subhumid","UGS_fraction":0.42597999999999999},"geometry":{"type":"Point","coordinates":[8.093443138229065,6.289207241738064]}},{"type":"Feature","properties":{"agglosID":9.0,"agglosName":"Aba","ISO3":"NGA","Pop2015":1687158.0,"lc_10_fraction":0.71661,"lc_20_fraction":0.01007,"lc_30_fraction":0.02901,"X2015":50.659854888916,"annual_mean_temp":26.3350849151611,"annual_precipitation":2334.74194335938,"AEZ_NAME":"Tropic - warm / humid","UGS_fraction":0.75569},"geometry":{"type":"Point","coordinates":[7.344691537072476,5.223549562353085]}},{"type":"Feature","properties":{"agglosID":32.0,"agglosName":"Abidjan","ISO3":"CIV","Pop2015":4717347.0,"lc_10_fraction":0.05318,"lc_20_fraction":0.01158,"lc_30_fraction":0.07292,"X2015":25.9244480133057,"annual_mean_temp":26.4834003448486,"annual_precipitation":1711.85571289062,"AEZ_NAME":"Tropic - warm / humid","UGS_fraction":0.13768},"geometry":{"type":"Point","coordinates":[-3.958647276364483,5.368065654077041]}},{"type":"Feature","properties":{"agglosID":8202.0,"agglosName":"Nondabuya","ISO3":"ZAF","Pop2015":16656.0,"lc_10_fraction":0.1188,"lc_20_fraction":0.02558,"lc_30_fraction":0.47528,"X2015":12.3338584899902,"annual_mean_temp":21.8426380157471,"annual_precipitation":634.631225585938,"AEZ_NAME":"Tropic - warm / semiarid","UGS_fraction":0.61966},"geometry":{"type":"Point","coordinates":[32.11702705464036,-27.44699457769798]}},{"type":"Feature","properties":{"agglosID":8144.0,"agglosName":"Sodo","ISO3":"ETH","Pop2015":2261958.0,"lc_10_fraction":0.18466,"lc_20_fraction":0.43486,"lc_30_fraction":0.03695,"X2015":20.6999568939209,"annual_mean_temp":19.34743309021,"annual_precipitation":1368.0263671875,"AEZ_NAME":"Tropic - cool / humid","UGS_fraction":0.6564700000000001},"geometry":{"type":"Point","coordinates":[37.63097124123662,7.111770511343487]}},{"type":"Feature","properties":{"agglosID":7854.0,"agglosName":"Selouane","ISO3":"MAR","Pop2015":60457.0,"lc_10_fraction":0.00755,"lc_20_fraction":0.00809,"lc_30_fraction":0.21829,"X2015":12.5604677200317,"annual_mean_temp":18.5214500427246,"annual_precipitation":301.491119384766,"AEZ_NAME":"Subtropic - warm / semiarid","UGS_fraction":0.23393000000000004},"geometry":{"type":"Point","coordinates":[-2.938942754441938,35.07999256410254]}},{"type":"Feature","properties":{"agglosID":7791.0,"agglosName":"Sarabyum","ISO3":"EGY","Pop2015":43502.0,"lc_10_fraction":0.04577,"lc_20_fraction":0.0056,"lc_30_fraction":0.0009,"X2015":39.5024528503418,"annual_mean_temp":21.4659061431885,"annual_precipitation":31.005859375,"AEZ_NAME":"Subtropic - warm / arid","UGS_fraction":0.05227},"geometry":{"type":"Point","coordinates":[32.31798872763987,30.47540306440692]}},{"type":"Feature","properties":{"agglosID":7777.0,"agglosName":"Soyo","ISO3":"AGO","Pop2015":205943.0,"lc_10_fraction":0.03508,"lc_20_fraction":0.00509,"lc_30_fraction":0.30578,"X2015":20.7422103881836,"annual_mean_temp":25.9262294769287,"annual_precipitation":854.277221679688,"AEZ_NAME":"Tropic - warm / subhumid","UGS_fraction":0.34595},"geometry":{"type":"Point","coordinates":[12.366778209840433,-6.179725337147492]}},{"type":"Feature","properties":{"agglosID":367.0,"agglosName":"Ait ourir","ISO3":"MAR","Pop2015":67949.0,"lc_10_fraction":0.02379,"lc_20_fraction":0.01047,"lc_30_fraction":0.00959,"X2015":21.0870990753174,"annual_mean_temp":18.3876323699951,"annual_precipitation":324.167083740234,"AEZ_NAME":"Subtropic - warm / arid","UGS_fraction":0.04385},"geometry":{"type":"Point","coordinates":[-7.650996033618626,31.565471067419816]}},{"type":"Feature","properties":{"agglosID":8587.0,"agglosName":"Touba","ISO3":"SEN","Pop2015":872732.0,"lc_10_fraction":0.00198,"lc_20_fraction":0.02672,"lc_30_fraction":0.21834,"X2015":51.1717262268066,"annual_mean_temp":27.4355869293213,"annual_precipitation":471.926513671875,"AEZ_NAME":"Tropic - warm / semiarid","UGS_fraction":0.24704},"geometry":{"type":"Point","coordinates":[-15.89434810731964,14.857713223870409]}},{"type":"Feature","properties":{"agglosID":526.0,"agglosName":"Qift","ISO3":"EGY","Pop2015":160103.0,"lc_10_fraction":0.11238,"lc_20_fraction":0.02841,"lc_30_fraction":0.00025,"X2015":43.8774833679199,"annual_mean_temp":24.1159896850586,"annual_precipitation":0.0,"AEZ_NAME":"Subtropic - warm / arid","UGS_fraction":0.14104},"geometry":{"type":"Point","coordinates":[32.79221527873871,26.037806873118073]}},{"type":"Feature","properties":{"agglosID":8748.0,"agglosName":"Umm dawwanban","ISO3":"SDN","Pop2015":56925.0,"lc_10_fraction":0.00202,"lc_20_fraction":0.00103,"lc_30_fraction":0.00747,"X2015":35.6353530883789,"annual_mean_temp":29.3523597717285,"annual_precipitation":143.249145507812,"AEZ_NAME":"Tropic - warm / arid","UGS_fraction":0.01052},"geometry":{"type":"Point","coordinates":[32.83425348666459,15.43825465213154]}},{"type":"Feature","properties":{"agglosID":8762.0,"agglosName":"Umuabi","ISO3":"NGA","Pop2015":52888.0,"lc_10_fraction":0.79467,"lc_20_fraction":0.00238,"lc_30_fraction":0.02545,"X2015":29.0334072113037,"annual_mean_temp":25.779670715332,"annual_precipitation":1821.33190917969,"AEZ_NAME":"Tropic - warm / subhumid","UGS_fraction":0.8225},"geometry":{"type":"Point","coordinates":[7.366001675681243,6.273379437529282]}},{"type":"Feature","properties":{"agglosID":8737.0,"agglosName":"Umbumbulu","ISO3":"ZAF","Pop2015":42460.0,"lc_10_fraction":0.26469,"lc_20_fraction":0.01517,"lc_30_fraction":0.56588,"X2015":21.3429336547852,"annual_mean_temp":20.4700374603271,"annual_precipitation":1000.25842285156,"AEZ_NAME":"Subtropic - warm / subhumid","UGS_fraction":0.84574},"geometry":{"type":"Point","coordinates":[30.822433583975106,-30.141765933145927]}},{"type":"Feature","properties":{"agglosID":173.0,"agglosName":"Adeta","ISO3":"TGO","Pop2015":32895.0,"lc_10_fraction":0.403,"lc_20_fraction":0.0848,"lc_30_fraction":0.07963,"X2015":37.3870964050293,"annual_mean_temp":26.0739841461182,"annual_precipitation":1445.39990234375,"AEZ_NAME":"Tropic - warm / subhumid","UGS_fraction":0.56743},"geometry":{"type":"Point","coordinates":[0.736651496698781,7.144748499999935]}},{"type":"Feature","properties":{"agglosID":8690.0,"agglosName":"Tutume","ISO3":"BWA","Pop2015":18869.0,"lc_10_fraction":0.01355,"lc_20_fraction":0.43387,"lc_30_fraction":0.00723,"X2015":13.8648719787598,"annual_mean_temp":21.0179138183594,"annual_precipitation":448.122253417969,"AEZ_NAME":"Tropic - warm / semiarid","UGS_fraction":0.45465},"geometry":{"type":"Point","coordinates":[27.061844631659388,-20.514924187075708]}},{"type":"Feature","properties":{"agglosID":8366.0,"agglosName":"Tanjeh","ISO3":"GMB","Pop2015":40004.0,"lc_10_fraction":0.17476,"lc_20_fraction":0.12359,"lc_30_fraction":0.41223,"X2015":39.5616455078125,"annual_mean_temp":26.395092010498,"annual_precipitation":903.161499023438,"AEZ_NAME":"Tropic - warm / semiarid","UGS_fraction":0.71058},"geometry":{"type":"Point","coordinates":[-16.785619398698864,13.316215486323074]}},{"type":"Feature","properties":{"agglosID":8386.0,"agglosName":"Tarhūna","ISO3":"LBY","Pop2015":26025.0,"lc_10_fraction":0.00495,"lc_20_fraction":0.00265,"lc_30_fraction":0.10117,"X2015":16.4452457427979,"annual_mean_temp":18.9729022979736,"annual_precipitation":259.629486083984,"AEZ_NAME":"Subtropic - warm / semiarid","UGS_fraction":0.10876999999999999},"geometry":{"type":"Point","coordinates":[13.637296984815786,32.43300093460125]}},{"type":"Feature","properties":{"agglosID":8389.0,"agglosName":"Taroudannt","ISO3":"MAR","Pop2015":81012.0,"lc_10_fraction":0.02668,"lc_20_fraction":0.01193,"lc_30_fraction":0.01493,"X2015":22.2563953399658,"annual_mean_temp":20.0447177886963,"annual_precipitation":241.377624511719,"AEZ_NAME":"Subtropic - warm / arid","UGS_fraction":0.05354},"geometry":{"type":"Point","coordinates":[-8.938932395122109,30.46174183630588]}},{"type":"Feature","properties":{"agglosID":8382.0,"agglosName":"Tripoli","ISO3":"LBY","Pop2015":1949325.0,"lc_10_fraction":0.01707,"lc_20_fraction":0.00531,"lc_30_fraction":0.26309,"X2015":18.2782344818115,"annual_mean_temp":20.0569839477539,"annual_precipitation":283.192108154297,"AEZ_NAME":"Subtropic - warm / semiarid","UGS_fraction":0.28547},"geometry":{"type":"Point","coordinates":[13.193786529239095,32.689775159491848]}},{"type":"Feature","properties":{"agglosID":302.0,"agglosName":"Ain arnat","ISO3":"DZA","Pop2015":23472.0,"lc_10_fraction":0.00327,"lc_20_fraction":0.00004,"lc_30_fraction":0.04847,"X2015":15.6145944595337,"annual_mean_temp":14.4987754821777,"annual_precipitation":433.81494140625,"AEZ_NAME":"Subtropic - cool / subhumid","UGS_fraction":0.05178},"geometry":{"type":"Point","coordinates":[5.316621332154234,36.17338837765196]}},{"type":"Feature","properties":{"agglosID":8324.0,"agglosName":"Tamale","ISO3":"GHA","Pop2015":312881.0,"lc_10_fraction":0.04443,"lc_20_fraction":0.05334,"lc_30_fraction":0.08231,"X2015":47.6534309387207,"annual_mean_temp":28.1153564453125,"annual_precipitation":1097.9677734375,"AEZ_NAME":"Tropic - warm / subhumid","UGS_fraction":0.18008},"geometry":{"type":"Point","coordinates":[-0.847721755410392,9.42522106489249]}},{"type":"Feature","properties":{"agglosID":235.0,"agglosName":"Agadir","ISO3":"MAR","Pop2015":978629.0,"lc_10_fraction":0.00721,"lc_20_fraction":0.00678,"lc_30_fraction":0.02457,"X2015":21.9407958984375,"annual_mean_temp":19.1289176940918,"annual_precipitation":202.688552856445,"AEZ_NAME":"Subtropic - warm / semiarid","UGS_fraction":0.03856},"geometry":{"type":"Point","coordinates":[-9.534575170445937,30.366763589902953]}},{"type":"Feature","properties":{"agglosID":8283.0,"agglosName":"Chekfa","ISO3":"DZA","Pop2015":156735.0,"lc_10_fraction":0.26646,"lc_20_fraction":0.00458,"lc_30_fraction":0.22733,"X2015":14.1293544769287,"annual_mean_temp":17.713134765625,"annual_precipitation":930.934936523438,"AEZ_NAME":"Subtropic - warm / subhumid","UGS_fraction":0.49837},"geometry":{"type":"Point","coordinates":[5.881129704520546,36.76230744396334]}},{"type":"Feature","properties":{"agglosID":8516.0,"agglosName":"Tinghir","ISO3":"MAR","Pop2015":42502.0,"lc_10_fraction":0.04943,"lc_20_fraction":0.00748,"lc_30_fraction":0.01574,"X2015":25.6926326751709,"annual_mean_temp":16.2331142425537,"annual_precipitation":164.047668457031,"AEZ_NAME":"Subtropic - cool / arid","UGS_fraction":0.07265},"geometry":{"type":"Point","coordinates":[-5.535991176048896,31.514356468453636]}},{"type":"Feature","properties":{"agglosID":8460.0,"agglosName":"Tétouan","ISO3":"MAR","Pop2015":452555.0,"lc_10_fraction":0.03491,"lc_20_fraction":0.00277,"lc_30_fraction":0.16175,"X2015":16.3601474761963,"annual_mean_temp":18.4583644866943,"annual_precipitation":643.240783691406,"AEZ_NAME":"Subtropic - warm / subhumid","UGS_fraction":0.19943},"geometry":{"type":"Point","coordinates":[-5.349398645190423,35.589721996372329]}},{"type":"Feature","properties":{"agglosID":8423.0,"agglosName":"Tebeldina","ISO3":"SDN","Pop2015":43035.0,"lc_10_fraction":0.00385,"lc_20_fraction":0.00869,"lc_30_fraction":0.73048,"X2015":44.4320526123047,"annual_mean_temp":26.5717926025391,"annual_precipitation":307.84521484375,"AEZ_NAME":"Tropic - warm / semiarid","UGS_fraction":0.74302},"geometry":{"type":"Point","coordinates":[25.715069612612316,12.655991287991303]}},{"type":"Feature","properties":{"agglosID":8404.0,"agglosName":"Taza","ISO3":"MAR","Pop2015":149136.0,"lc_10_fraction":0.09899,"lc_20_fraction":0.0003,"lc_30_fraction":0.07463,"X2015":20.6727161407471,"annual_mean_temp":17.6139163970947,"annual_precipitation":603.809875488281,"AEZ_NAME":"Subtropic - warm / subhumid","UGS_fraction":0.17392},"geometry":{"type":"Point","coordinates":[-4.009039958069191,34.21873845163249]}},{"type":"Feature","properties":{"agglosID":1068.0,"agglosName":"Al-sufr","ISO3":"SDN","Pop2015":25704.0,"lc_10_fraction":0.01354,"lc_20_fraction":0.00208,"lc_30_fraction":0.00004,"X2015":42.0117988586426,"annual_mean_temp":29.5307559967041,"annual_precipitation":73.7422027587891,"AEZ_NAME":"Tropic - warm / arid","UGS_fraction":0.01566},"geometry":{"type":"Point","coordinates":[33.54539753883022,16.782037358164297]}},{"type":"Feature","properties":{"agglosID":9118.0,"agglosName":"Zalingey","ISO3":"SDN","Pop2015":135500.0,"lc_10_fraction":0.02865,"lc_20_fraction":0.00592,"lc_30_fraction":0.42584,"X2015":37.460636138916,"annual_mean_temp":24.8021488189697,"annual_precipitation":558.923645019531,"AEZ_NAME":"Tropic - warm / semiarid","UGS_fraction":0.46041},"geometry":{"type":"Point","coordinates":[23.463150796739105,12.911565986579863]}},{"type":"Feature","properties":{"agglosID":9059.0,"agglosName":"Yaounde","ISO3":"CMR","Pop2015":3901680.0,"lc_10_fraction":0.26464,"lc_20_fraction":0.00008,"lc_30_fraction":0.12235,"X2015":43.1633529663086,"annual_mean_temp":23.683048248291,"annual_precipitation":1624.94311523438,"AEZ_NAME":"Tropic - warm / humid","UGS_fraction":0.38707},"geometry":{"type":"Point","coordinates":[11.534436165575507,3.931641170791011]}},{"type":"Feature","properties":{"agglosID":9052.0,"agglosName":"Yambio","ISO3":"SSD","Pop2015":168900.0,"lc_10_fraction":0.39328,"lc_20_fraction":0.40224,"lc_30_fraction":0.16069,"X2015":27.987756729126,"annual_mean_temp":24.4839553833008,"annual_precipitation":1491.17468261719,"AEZ_NAME":"Tropic - warm / subhumid","UGS_fraction":0.95621},"geometry":{"type":"Point","coordinates":[28.48715223104732,4.61298527194149]}},{"type":"Feature","properties":{"agglosID":9173.0,"agglosName":"Zlitan","ISO3":"LBY","Pop2015":228922.0,"lc_10_fraction":0.02342,"lc_20_fraction":0.00637,"lc_30_fraction":0.25265,"X2015":17.0545463562012,"annual_mean_temp":20.6897983551025,"annual_precipitation":244.768035888672,"AEZ_NAME":"Subtropic - warm / semiarid","UGS_fraction":0.28243999999999999},"geometry":{"type":"Point","coordinates":[14.558940830103652,32.48243241605189]}},{"type":"Feature","properties":{"agglosID":631.0,"agglosName":"Alger","ISO3":"DZA","Pop2015":3886202.0,"lc_10_fraction":0.09551,"lc_20_fraction":0.00894,"lc_30_fraction":0.11099,"X2015":15.0035753250122,"annual_mean_temp":17.5899200439453,"annual_precipitation":690.198913574219,"AEZ_NAME":"Subtropic - warm / subhumid","UGS_fraction":0.21544000000000003},"geometry":{"type":"Point","coordinates":[3.374985403884884,36.680550602041197]}},{"type":"Feature","properties":{"agglosID":8808.0,"agglosName":"Uzebba","ISO3":"NGA","Pop2015":57760.0,"lc_10_fraction":0.38574,"lc_20_fraction":0.05637,"lc_30_fraction":0.12195,"X2015":35.7773132324219,"annual_mean_temp":25.4819259643555,"annual_precipitation":1493.56958007812,"AEZ_NAME":"Tropic - warm / subhumid","UGS_fraction":0.56406},"geometry":{"type":"Point","coordinates":[5.899593041949198,7.006474095257852]}},{"type":"Feature","properties":{"agglosID":8806.0,"agglosName":"Uyo","ISO3":"NGA","Pop2015":2271025.0,"lc_10_fraction":0.70071,"lc_20_fraction":0.0096,"lc_30_fraction":0.0423,"X2015":54.9007720947266,"annual_mean_temp":26.4646682739258,"annual_precipitation":2533.22021484375,"AEZ_NAME":"Tropic - warm / humid","UGS_fraction":0.7526100000000001},"geometry":{"type":"Point","coordinates":[7.884822962007116,5.067914815369902]}},{"type":"Feature","properties":{"agglosID":8794.0,"agglosName":"Ushapa","ISO3":"NGA","Pop2015":51280.0,"lc_10_fraction":0.03602,"lc_20_fraction":0.02817,"lc_30_fraction":0.04125,"X2015":85.9875183105469,"annual_mean_temp":25.6753330230713,"annual_precipitation":1358.55834960938,"AEZ_NAME":"Tropic - warm / subhumid","UGS_fraction":0.10544},"geometry":{"type":"Point","coordinates":[7.409378155204559,9.220631849376418]}},{"type":"Feature","properties":{"agglosID":8968.0,"agglosName":"Ariwara (wawa)","ISO3":"COD","Pop2015":82000.0,"lc_10_fraction":0.00704,"lc_20_fraction":0.23962,"lc_30_fraction":0.22447,"X2015":26.3776264190674,"annual_mean_temp":23.157018661499,"annual_precipitation":1481.02734375,"AEZ_NAME":"Tropic - cool / humid","UGS_fraction":0.47113},"geometry":{"type":"Point","coordinates":[30.70517205295621,3.125786822250469]}},{"type":"Feature","properties":{"agglosID":1470.0,"agglosName":"Bafoussam","ISO3":"CMR","Pop2015":1146230.0,"lc_10_fraction":0.50308,"lc_20_fraction":0.01033,"lc_30_fraction":0.18139,"X2015":90.7573547363281,"annual_mean_temp":22.4250984191895,"annual_precipitation":1966.06420898438,"AEZ_NAME":"Tropic - cool / humid","UGS_fraction":0.6947999999999999},"geometry":{"type":"Point","coordinates":[10.351222558498069,5.427083632886099]}},{"type":"Feature","properties":{"agglosID":1440.0,"agglosName":"Bab berred","ISO3":"MAR","Pop2015":26085.0,"lc_10_fraction":0.04813,"lc_20_fraction":0.06159,"lc_30_fraction":0.53745,"X2015":13.3036031723022,"annual_mean_temp":13.3406686782837,"annual_precipitation":858.948913574219,"AEZ_NAME":"Subtropic - cool / subhumid","UGS_fraction":0.64717},"geometry":{"type":"Point","coordinates":[-4.924840510548883,34.99185935873075]}},{"type":"Feature","properties":{"agglosID":8957.0,"agglosName":"Warri","ISO3":"NGA","Pop2015":585552.0,"lc_10_fraction":0.10194,"lc_20_fraction":0.0005,"lc_30_fraction":0.12396,"X2015":46.8833503723145,"annual_mean_temp":26.5494518280029,"annual_precipitation":2692.16918945312,"AEZ_NAME":"Tropic - warm / subhumid","UGS_fraction":0.2264},"geometry":{"type":"Point","coordinates":[5.758388901470475,5.539560918105199]}},{"type":"Feature","properties":{"agglosID":1585.0,"agglosName":"Banghazi","ISO3":"LBY","Pop2015":594255.0,"lc_10_fraction":0.00815,"lc_20_fraction":0.00299,"lc_30_fraction":0.09105,"X2015":17.3932075500488,"annual_mean_temp":20.3246574401855,"annual_precipitation":227.163467407227,"AEZ_NAME":"Subtropic - warm / semiarid","UGS_fraction":0.10219},"geometry":{"type":"Point","coordinates":[20.109403817320954,32.086225406515257]}},{"type":"Feature","properties":{"agglosID":1558.0,"agglosName":"Bamenda","ISO3":"CMR","Pop2015":312337.0,"lc_10_fraction":0.35787,"lc_20_fraction":0.00274,"lc_30_fraction":0.15799,"X2015":89.6284027099609,"annual_mean_temp":22.5299110412598,"annual_precipitation":2121.45947265625,"AEZ_NAME":"Tropic - cool / humid","UGS_fraction":0.5186000000000001},"geometry":{"type":"Point","coordinates":[10.189738115186888,5.985785306852546]}},{"type":"Feature","properties":{"agglosID":1497.0,"agglosName":"Baia farta","ISO3":"AGO","Pop2015":62241.0,"lc_10_fraction":0.00068,"lc_20_fraction":0.0178,"lc_30_fraction":0.08638,"X2015":19.3434104919434,"annual_mean_temp":24.4867992401123,"annual_precipitation":337.309234619141,"AEZ_NAME":"Tropic - warm / semiarid","UGS_fraction":0.10486},"geometry":{"type":"Point","coordinates":[13.178986475397118,-12.618353202740531]}},{"type":"Feature","properties":{"agglosID":1150.0,"agglosName":"Amashangana","ISO3":"ZAF","Pop2015":36800.0,"lc_10_fraction":0.03739,"lc_20_fraction":0.02584,"lc_30_fraction":0.21561,"X2015":17.6296157836914,"annual_mean_temp":21.478982925415,"annual_precipitation":711.351928710938,"AEZ_NAME":"Tropic - warm / semiarid","UGS_fraction":0.27884},"geometry":{"type":"Point","coordinates":[31.224216214443567,-24.751057622121178]}},{"type":"Feature","properties":{"agglosID":1350.0,"agglosName":"Asyut","ISO3":"EGY","Pop2015":1345668.0,"lc_10_fraction":0.08661,"lc_20_fraction":0.01149,"lc_30_fraction":0.00041,"X2015":50.130859375,"annual_mean_temp":22.4366817474365,"annual_precipitation":1.00942635536194,"AEZ_NAME":"Subtropic - warm / arid","UGS_fraction":0.09851},"geometry":{"type":"Point","coordinates":[31.15168460339003,27.224378008478007]}},{"type":"Feature","properties":{"agglosID":1342.0,"agglosName":"Assilah","ISO3":"MAR","Pop2015":31379.0,"lc_10_fraction":0.01768,"lc_20_fraction":0.00251,"lc_30_fraction":0.31354,"X2015":16.9208431243896,"annual_mean_temp":17.9498863220215,"annual_precipitation":656.530517578125,"AEZ_NAME":"Subtropic - warm / subhumid","UGS_fraction":0.33372999999999999},"geometry":{"type":"Point","coordinates":[-6.032399752935575,35.466035064251389]}},{"type":"Feature","properties":{"agglosID":1235.0,"agglosName":"Antananarivo","ISO3":"MDG","Pop2015":2500317.0,"lc_10_fraction":0.02713,"lc_20_fraction":0.01654,"lc_30_fraction":0.13094,"X2015":22.4568710327148,"annual_mean_temp":18.8292789459229,"annual_precipitation":1262.09350585938,"AEZ_NAME":"Tropic - cool / humid","UGS_fraction":0.17461},"geometry":{"type":"Point","coordinates":[47.53012614300546,-18.9245544841283]}},{"type":"Feature","properties":{"agglosID":1226.0,"agglosName":"Annaba","ISO3":"DZA","Pop2015":396309.0,"lc_10_fraction":0.1115,"lc_20_fraction":0.00818,"lc_30_fraction":0.08462,"X2015":16.9705448150635,"annual_mean_temp":17.7182502746582,"annual_precipitation":863.780456542969,"AEZ_NAME":"Subtropic - warm / subhumid","UGS_fraction":0.2043},"geometry":{"type":"Point","coordinates":[7.738713907558409,36.89168349576828]}},{"type":"Feature","properties":{"agglosID":1247.0,"agglosName":"Aourir","ISO3":"MAR","Pop2015":36671.0,"lc_10_fraction":0.00422,"lc_20_fraction":0.00167,"lc_30_fraction":0.06166,"X2015":18.5416393280029,"annual_mean_temp":18.3617515563965,"annual_precipitation":213.370620727539,"AEZ_NAME":"Subtropic - warm / semiarid","UGS_fraction":0.06755},"geometry":{"type":"Point","coordinates":[-9.654163179269423,30.506898739917668]}},{"type":"Feature","properties":{"agglosID":5991.0,"agglosName":"Middelburg (steve tshwete)","ISO3":"ZAF","Pop2015":55284.0,"lc_10_fraction":0.13029,"lc_20_fraction":0.00035,"lc_30_fraction":0.16521,"X2015":27.4481678009033,"annual_mean_temp":16.6648902893066,"annual_precipitation":679.304260253906,"AEZ_NAME":"Subtropic - cool / semiarid","UGS_fraction":0.29584999999999997},"geometry":{"type":"Point","coordinates":[29.45716799299781,-25.777927331512666]}},{"type":"Feature","properties":{"agglosID":6207.0,"agglosName":"Molepolole","ISO3":"BWA","Pop2015":71138.0,"lc_10_fraction":0.01726,"lc_20_fraction":0.51489,"lc_30_fraction":0.04096,"X2015":16.4363384246826,"annual_mean_temp":20.7211837768555,"annual_precipitation":431.698913574219,"AEZ_NAME":"Tropic - warm / semiarid","UGS_fraction":0.57311},"geometry":{"type":"Point","coordinates":[25.526397382482416,-24.388806458309455]}},{"type":"Feature","properties":{"agglosID":5778.0,"agglosName":"Masvingo south","ISO3":"ZWE","Pop2015":92360.0,"lc_10_fraction":0.13485,"lc_20_fraction":0.04173,"lc_30_fraction":0.06939,"X2015":15.7748985290527,"annual_mean_temp":19.5900802612305,"annual_precipitation":641.576416015625,"AEZ_NAME":"Tropic - warm / semiarid","UGS_fraction":0.24597000000000003},"geometry":{"type":"Point","coordinates":[30.830104038811027,-20.072896075043045]}},{"type":"Feature","properties":{"agglosID":5753.0,"agglosName":"Maseru","ISO3":"LSO","Pop2015":306902.0,"lc_10_fraction":0.02344,"lc_20_fraction":0.00926,"lc_30_fraction":0.48992,"X2015":29.2962684631348,"annual_mean_temp":15.1135244369507,"annual_precipitation":710.200866699219,"AEZ_NAME":"Subtropic - cool / semiarid","UGS_fraction":0.52262},"geometry":{"type":"Point","coordinates":[27.506564740970878,-29.361119763398926]}},{"type":"Feature","properties":{"agglosID":5732.0,"agglosName":"Marondera","ISO3":"ZWE","Pop2015":67296.0,"lc_10_fraction":0.20321,"lc_20_fraction":0.03277,"lc_30_fraction":0.07706,"X2015":18.6291389465332,"annual_mean_temp":16.8184604644775,"annual_precipitation":875.335388183594,"AEZ_NAME":"Tropic - cool / semiarid","UGS_fraction":0.31304},"geometry":{"type":"Point","coordinates":[31.532421907138344,-18.206751821160034]}},{"type":"Feature","properties":{"agglosID":5733.0,"agglosName":"Maroua","ISO3":"CMR","Pop2015":240888.0,"lc_10_fraction":0.11642,"lc_20_fraction":0.04132,"lc_30_fraction":0.13007,"X2015":68.8340072631836,"annual_mean_temp":27.2382869720459,"annual_precipitation":783.7353515625,"AEZ_NAME":"Tropic - warm / semiarid","UGS_fraction":0.28781},"geometry":{"type":"Point","coordinates":[14.306323634087175,10.590930840250224]}},{"type":"Feature","properties":{"agglosID":5922.0,"agglosName":"Meknes","ISO3":"MAR","Pop2015":629519.0,"lc_10_fraction":0.06352,"lc_20_fraction":0.00309,"lc_30_fraction":0.09005,"X2015":20.5332164764404,"annual_mean_temp":16.8885707855225,"annual_precipitation":522.8115234375,"AEZ_NAME":"Subtropic - warm / subhumid","UGS_fraction":0.15666},"geometry":{"type":"Point","coordinates":[-5.564658618319521,33.87438552441832]}},{"type":"Feature","properties":{"agglosID":5880.0,"agglosName":"Mbour","ISO3":"SEN","Pop2015":317009.0,"lc_10_fraction":0.01362,"lc_20_fraction":0.03714,"lc_30_fraction":0.30603,"X2015":45.9499702453613,"annual_mean_temp":26.0690383911133,"annual_precipitation":489.964508056641,"AEZ_NAME":"Tropic - warm / semiarid","UGS_fraction":0.35679000000000007},"geometry":{"type":"Point","coordinates":[-16.95916230407293,14.428683194360339]}},{"type":"Feature","properties":{"agglosID":5882.0,"agglosName":"Mbuji-mayi","ISO3":"COD","Pop2015":901000.0,"lc_10_fraction":0.54586,"lc_20_fraction":0.06026,"lc_30_fraction":0.14318,"X2015":42.2512664794922,"annual_mean_temp":25.2043704986572,"annual_precipitation":1499.22912597656,"AEZ_NAME":"Tropic - warm / subhumid","UGS_fraction":0.7493},"geometry":{"type":"Point","coordinates":[23.732118294068238,-6.168947144078203]}},{"type":"Feature","properties":{"agglosID":5845.0,"agglosName":"Kisumu/mbale/busia/sirari [uga] 1","ISO3":"UGA","Pop2015":2228643.0,"lc_10_fraction":0.17095,"lc_20_fraction":0.54046,"lc_30_fraction":0.13078,"X2015":25.6517486572266,"annual_mean_temp":22.1958312988281,"annual_precipitation":1327.42016601562,"AEZ_NAME":"Tropic - warm / humid","UGS_fraction":0.8421900000000001},"geometry":{"type":"Point","coordinates":[34.24557946105912,0.96378071245198]}},{"type":"Feature","properties":{"agglosID":6532.0,"agglosName":"Namibe","ISO3":"AGO","Pop2015":263210.0,"lc_10_fraction":0.00212,"lc_20_fraction":0.00138,"lc_30_fraction":0.00055,"X2015":18.6394901275635,"annual_mean_temp":24.5529499053955,"annual_precipitation":76.4621276855469,"AEZ_NAME":"Subtropic - warm / semiarid","UGS_fraction":0.00405},"geometry":{"type":"Point","coordinates":[12.182528000972728,-15.206069255828798]}},{"type":"Feature","properties":{"agglosID":6621.0,"agglosName":"Akpugo","ISO3":"NGA","Pop2015":186318.0,"lc_10_fraction":0.77205,"lc_20_fraction":0.02478,"lc_30_fraction":0.02579,"X2015":19.7679424285889,"annual_mean_temp":26.8871803283691,"annual_precipitation":1783.95080566406,"AEZ_NAME":"Tropic - warm / subhumid","UGS_fraction":0.82262},"geometry":{"type":"Point","coordinates":[7.589796669871778,6.34550203119372]}},{"type":"Feature","properties":{"agglosID":6289.0,"agglosName":"Mpika","ISO3":"ZMB","Pop2015":49197.0,"lc_10_fraction":0.01684,"lc_20_fraction":0.02505,"lc_30_fraction":0.05044,"X2015":21.4999103546143,"annual_mean_temp":19.2801628112793,"annual_precipitation":1053.13415527344,"AEZ_NAME":"Tropic - cool / semiarid","UGS_fraction":0.09233},"geometry":{"type":"Point","coordinates":[31.45224191715711,-11.829335612149633]}},{"type":"Feature","properties":{"agglosID":6224.0,"agglosName":"Monrovia","ISO3":"LBR","Pop2015":1190635.0,"lc_10_fraction":0.1567,"lc_20_fraction":0.00728,"lc_30_fraction":0.24186,"X2015":23.5168991088867,"annual_mean_temp":26.18528175354,"annual_precipitation":4296.8818359375,"AEZ_NAME":"Tropic - warm / humid","UGS_fraction":0.40584},"geometry":{"type":"Point","coordinates":[-10.75492780485335,6.338518283379068]}},{"type":"Feature","properties":{"agglosID":6457.0,"agglosName":"Mwasabobmbwe","ISO3":"ZMB","Pop2015":37665.0,"lc_10_fraction":0.04951,"lc_20_fraction":0.0246,"lc_30_fraction":0.04012,"X2015":31.6665592193604,"annual_mean_temp":23.1059017181396,"annual_precipitation":1182.50122070312,"AEZ_NAME":"Tropic - warm / subhumid","UGS_fraction":0.11423},"geometry":{"type":"Point","coordinates":[28.750075911620553,-9.783943106082362]}},{"type":"Feature","properties":{"agglosID":6396.0,"agglosName":"Muramwiya","ISO3":"BDI","Pop2015":95479.0,"lc_10_fraction":0.10361,"lc_20_fraction":0.16489,"lc_30_fraction":0.07258,"X2015":37.8275108337402,"annual_mean_temp":17.5101146697998,"annual_precipitation":1278.984375,"AEZ_NAME":"Tropic - cool / subhumid","UGS_fraction":0.34108000000000007},"geometry":{"type":"Point","coordinates":[29.64818652166004,-3.312571685182196]}},{"type":"Feature","properties":{"agglosID":7092.0,"agglosName":"Ondjiva","ISO3":"AGO","Pop2015":124575.0,"lc_10_fraction":0.03408,"lc_20_fraction":0.15301,"lc_30_fraction":0.08412,"X2015":17.5486488342285,"annual_mean_temp":22.9852962493896,"annual_precipitation":603.861511230469,"AEZ_NAME":"Tropic - warm / semiarid","UGS_fraction":0.27121},"geometry":{"type":"Point","coordinates":[15.715732056551193,-17.072633333172957]}},{"type":"Feature","properties":{"agglosID":7110.0,"agglosName":"Oran","ISO3":"DZA","Pop2015":1043424.0,"lc_10_fraction":0.01942,"lc_20_fraction":0.01307,"lc_30_fraction":0.04913,"X2015":12.7371788024902,"annual_mean_temp":17.284969329834,"annual_precipitation":366.841827392578,"AEZ_NAME":"Subtropic - warm / semiarid","UGS_fraction":0.08162},"geometry":{"type":"Point","coordinates":[-0.638751532527225,35.68344307534502]}},{"type":"Feature","properties":{"agglosID":7098.0,"agglosName":"Onitsha","ISO3":"NGA","Pop2015":8530514.0,"lc_10_fraction":0.62949,"lc_20_fraction":0.00403,"lc_30_fraction":0.03982,"X2015":38.3828544616699,"annual_mean_temp":26.33180809021,"annual_precipitation":2038.99047851562,"AEZ_NAME":"Tropic - warm / subhumid","UGS_fraction":0.6733399999999999},"geometry":{"type":"Point","coordinates":[6.935997402488635,5.814853327795356]}},{"type":"Feature","properties":{"agglosID":7063.0,"agglosName":"Okwuzi","ISO3":"NGA","Pop2015":34843.0,"lc_10_fraction":0.24017,"lc_20_fraction":0.0,"lc_30_fraction":0.19004,"X2015":55.7969627380371,"annual_mean_temp":26.5115165710449,"annual_precipitation":2298.94091796875,"AEZ_NAME":"Tropic - warm / subhumid","UGS_fraction":0.43021},"geometry":{"type":"Point","coordinates":[6.716442106512384,5.485867378497948]}},{"type":"Feature","properties":{"agglosID":7000.0,"agglosName":"Oguma 2","ISO3":"NGA","Pop2015":27897.0,"lc_10_fraction":0.20937,"lc_20_fraction":0.04939,"lc_30_fraction":0.03536,"X2015":62.5740203857422,"annual_mean_temp":27.6633605957031,"annual_precipitation":1195.11840820312,"AEZ_NAME":"Tropic - warm / subhumid","UGS_fraction":0.29412},"geometry":{"type":"Point","coordinates":[7.063568021014669,7.877645132506151]}},{"type":"Feature","properties":{"agglosID":7201.0,"agglosName":"Ouled attia","ISO3":"DZA","Pop2015":16226.0,"lc_10_fraction":0.01404,"lc_20_fraction":0.00123,"lc_30_fraction":0.04735,"X2015":15.9022436141968,"annual_mean_temp":16.1275024414062,"annual_precipitation":285.770080566406,"AEZ_NAME":"Subtropic - cool / semiarid","UGS_fraction":0.06262000000000001},"geometry":{"type":"Point","coordinates":[3.678946783054204,35.147717788627769]}},{"type":"Feature","properties":{"agglosID":7191.0,"agglosName":"Oujda","ISO3":"MAR","Pop2015":516125.0,"lc_10_fraction":0.01065,"lc_20_fraction":0.00169,"lc_30_fraction":0.03661,"X2015":15.1408185958862,"annual_mean_temp":16.3962821960449,"annual_precipitation":326.936889648438,"AEZ_NAME":"Subtropic - warm / semiarid","UGS_fraction":0.048949999999999996},"geometry":{"type":"Point","coordinates":[-1.902226331129285,34.7029503484858]}},{"type":"Feature","properties":{"agglosID":7132.0,"agglosName":"Osogbo","ISO3":"NGA","Pop2015":763544.0,"lc_10_fraction":0.19435,"lc_20_fraction":0.00785,"lc_30_fraction":0.17136,"X2015":48.911994934082,"annual_mean_temp":25.9684658050537,"annual_precipitation":1307.58630371094,"AEZ_NAME":"Tropic - warm / subhumid","UGS_fraction":0.37356},"geometry":{"type":"Point","coordinates":[4.534735076037324,7.783744405476682]}},{"type":"Feature","properties":{"agglosID":9203.0,"agglosName":"Zweletemba","ISO3":"ZAF","Pop2015":18166.0,"lc_10_fraction":0.00005,"lc_20_fraction":0.02036,"lc_30_fraction":0.013,"X2015":7.7317681312561,"annual_mean_temp":17.6731719970703,"annual_precipitation":568.036865234375,"AEZ_NAME":"Subtropic - warm / semiarid","UGS_fraction":0.03341},"geometry":{"type":"Point","coordinates":[19.494943985765589,-33.64497318354588]}},{"type":"Feature","properties":{"agglosID":9202.0,"agglosName":"Zwedru","ISO3":"LBR","Pop2015":29189.0,"lc_10_fraction":0.52516,"lc_20_fraction":0.10231,"lc_30_fraction":0.10358,"X2015":21.7876853942871,"annual_mean_temp":25.625036239624,"annual_precipitation":2083.18603515625,"AEZ_NAME":"Tropic - warm / humid","UGS_fraction":0.73105},"geometry":{"type":"Point","coordinates":[-8.137889919891589,6.064662076845418]}},{"type":"Feature","properties":{"agglosID":9200.0,"agglosName":"Zwaneville","ISO3":"ZAF","Pop2015":26395.0,"lc_10_fraction":0.00411,"lc_20_fraction":0.0,"lc_30_fraction":0.08892,"X2015":55.3299102783203,"annual_mean_temp":15.6197824478149,"annual_precipitation":721.449645996094,"AEZ_NAME":"Subtropic - cool / semiarid","UGS_fraction":0.09303},"geometry":{"type":"Point","coordinates":[27.768793646089436,-26.197729063892674]}},{"type":"Feature","properties":{"agglosID":9199.0,"agglosName":"Platinum mine","ISO3":"ZWE","Pop2015":47300.0,"lc_10_fraction":0.19144,"lc_20_fraction":0.04574,"lc_30_fraction":0.02794,"X2015":16.0005970001221,"annual_mean_temp":20.7333221435547,"annual_precipitation":568.127380371094,"AEZ_NAME":"Tropic - warm / semiarid","UGS_fraction":0.26512},"geometry":{"type":"Point","coordinates":[30.058102063865389,-20.303320351976994]}},{"type":"Feature","properties":{"agglosID":9198.0,"agglosName":"Zuwara","ISO3":"LBY","Pop2015":26854.0,"lc_10_fraction":0.00026,"lc_20_fraction":0.00532,"lc_30_fraction":0.02535,"X2015":20.3976020812988,"annual_mean_temp":19.9556579589844,"annual_precipitation":231.350997924805,"AEZ_NAME":"Subtropic - warm / arid","UGS_fraction":0.03093},"geometry":{"type":"Point","coordinates":[12.088775326074903,32.9266110349123]}},{"type":"Feature","properties":{"agglosID":9197.0,"agglosName":"Zuru","ISO3":"NGA","Pop2015":122854.0,"lc_10_fraction":0.06466,"lc_20_fraction":0.03203,"lc_30_fraction":0.05118,"X2015":78.1686019897461,"annual_mean_temp":27.172981262207,"annual_precipitation":915.198974609375,"AEZ_NAME":"Tropic - warm / semiarid","UGS_fraction":0.14787},"geometry":{"type":"Point","coordinates":[5.243873812063532,11.426615752609698]}},{"type":"Feature","properties":{"agglosID":9196.0,"agglosName":"Zurqa","ISO3":"SDN","Pop2015":11165.0,"lc_10_fraction":0.0,"lc_20_fraction":0.00064,"lc_30_fraction":0.32298,"X2015":42.3435020446777,"annual_mean_temp":28.4600257873535,"annual_precipitation":221.948532104492,"AEZ_NAME":"Tropic - warm / arid","UGS_fraction":0.32361999999999999},"geometry":{"type":"Point","coordinates":[33.51544299320072,14.944840901715745]}},{"type":"Feature","properties":{"agglosID":9195.0,"agglosName":"Zurmi","ISO3":"NGA","Pop2015":23760.0,"lc_10_fraction":0.00712,"lc_20_fraction":0.00471,"lc_30_fraction":0.08843,"X2015":106.300964355469,"annual_mean_temp":27.1890106201172,"annual_precipitation":609.445495605469,"AEZ_NAME":"Tropic - warm / semiarid","UGS_fraction":0.10025999999999999},"geometry":{"type":"Point","coordinates":[6.773593316794656,12.782904283340536]}},{"type":"Feature","properties":{"agglosID":9194.0,"agglosName":"Zur abu al-layl","ISO3":"EGY","Pop2015":19534.0,"lc_10_fraction":0.00115,"lc_20_fraction":0.00025,"lc_30_fraction":0.0,"X2015":43.1245193481445,"annual_mean_temp":20.3087825775146,"annual_precipitation":54.775806427002,"AEZ_NAME":"Subtropic - warm / arid","UGS_fraction":0.0014},"geometry":{"type":"Point","coordinates":[31.761776079644809,30.923102600935544]}},{"type":"Feature","properties":{"agglosID":9193.0,"agglosName":"Zungeru","ISO3":"NGA","Pop2015":16342.0,"lc_10_fraction":0.03496,"lc_20_fraction":0.03251,"lc_30_fraction":0.0404,"X2015":91.4975204467773,"annual_mean_temp":27.7715892791748,"annual_precipitation":1208.529296875,"AEZ_NAME":"Tropic - warm / subhumid","UGS_fraction":0.10787},"geometry":{"type":"Point","coordinates":[6.153423293341033,9.808283613111622]}},{"type":"Feature","properties":{"agglosID":9192.0,"agglosName":"Zuguma","ISO3":"NGA","Pop2015":22014.0,"lc_10_fraction":0.01352,"lc_20_fraction":0.09868,"lc_30_fraction":0.06886,"X2015":68.071159362793,"annual_mean_temp":27.4760074615479,"annual_precipitation":1107.45593261719,"AEZ_NAME":"Tropic - warm / subhumid","UGS_fraction":0.18106},"geometry":{"type":"Point","coordinates":[4.96672719382212,9.458962564847825]}},{"type":"Feature","properties":{"agglosID":9191.0,"agglosName":"Zuenoufla","ISO3":"CIV","Pop2015":34960.0,"lc_10_fraction":0.03249,"lc_20_fraction":0.09198,"lc_30_fraction":0.09504,"X2015":26.4070301055908,"annual_mean_temp":26.3677349090576,"annual_precipitation":1153.95458984375,"AEZ_NAME":"Tropic - warm / subhumid","UGS_fraction":0.21950999999999999},"geometry":{"type":"Point","coordinates":[-6.04851905689612,7.425848148074239]}},{"type":"Feature","properties":{"agglosID":9190.0,"agglosName":"Zuarungu daboro","ISO3":"GHA","Pop2015":12544.0,"lc_10_fraction":0.00762,"lc_20_fraction":0.03618,"lc_30_fraction":0.09037,"X2015":49.8533210754395,"annual_mean_temp":28.2324619293213,"annual_precipitation":990.974487304688,"AEZ_NAME":"Tropic - warm / subhumid","UGS_fraction":0.13417},"geometry":{"type":"Point","coordinates":[-0.799183828305379,10.777395855257663]}},{"type":"Feature","properties":{"agglosID":9188.0,"agglosName":"Zoula","ISO3":"BFA","Pop2015":10981.0,"lc_10_fraction":0.0424,"lc_20_fraction":0.06306,"lc_30_fraction":0.22979,"X2015":46.7791595458984,"annual_mean_temp":27.9689044952393,"annual_precipitation":738.428466796875,"AEZ_NAME":"Tropic - warm / semiarid","UGS_fraction":0.33525},"geometry":{"type":"Point","coordinates":[-2.461756118143575,12.252370745597995]}},{"type":"Feature","properties":{"agglosID":9187.0,"agglosName":"Zoukougbeu","ISO3":"CIV","Pop2015":16767.0,"lc_10_fraction":0.11845,"lc_20_fraction":0.02316,"lc_30_fraction":0.23393,"X2015":23.6163806915283,"annual_mean_temp":25.7720890045166,"annual_precipitation":1328.13977050781,"AEZ_NAME":"Tropic - warm / humid","UGS_fraction":0.37554},"geometry":{"type":"Point","coordinates":[-6.862757575597984,6.76417731216258]}},{"type":"Feature","properties":{"agglosID":9186.0,"agglosName":"Zoueiratt","ISO3":"MRT","Pop2015":47188.0,"lc_10_fraction":0.00036,"lc_20_fraction":0.00006,"lc_30_fraction":0.0,"X2015":48.0958557128906,"annual_mean_temp":26.193977355957,"annual_precipitation":44.0,"AEZ_NAME":"Tropic - warm / arid","UGS_fraction":0.00042},"geometry":{"type":"Point","coordinates":[-12.46572236564878,22.738674400272037]}},{"type":"Feature","properties":{"agglosID":9185.0,"agglosName":"Zouan-hounien","ISO3":"CIV","Pop2015":23506.0,"lc_10_fraction":0.30199,"lc_20_fraction":0.03739,"lc_30_fraction":0.15077,"X2015":21.4884243011475,"annual_mean_temp":25.5223560333252,"annual_precipitation":1842.970703125,"AEZ_NAME":"Tropic - warm / humid","UGS_fraction":0.49015},"geometry":{"type":"Point","coordinates":[-8.20936144587945,6.919345536224088]}},{"type":"Feature","properties":{"agglosID":9184.0,"agglosName":"Zouan","ISO3":"CIV","Pop2015":10206.0,"lc_10_fraction":0.13821,"lc_20_fraction":0.01674,"lc_30_fraction":0.09646,"X2015":23.0030078887939,"annual_mean_temp":25.7006072998047,"annual_precipitation":1619.52770996094,"AEZ_NAME":"Tropic - warm / humid","UGS_fraction":0.25141},"geometry":{"type":"Point","coordinates":[-7.599912319624126,6.543514176045438]}},{"type":"Feature","properties":{"agglosID":9183.0,"agglosName":"Zou","ISO3":"CIV","Pop2015":19987.0,"lc_10_fraction":0.25043,"lc_20_fraction":0.03028,"lc_30_fraction":0.1429,"X2015":22.0509643554688,"annual_mean_temp":25.1990127563477,"annual_precipitation":1683.12927246094,"AEZ_NAME":"Tropic - warm / humid","UGS_fraction":0.42361000000000006},"geometry":{"type":"Point","coordinates":[-7.799077921481441,6.975546611274435]}},{"type":"Feature","properties":{"agglosID":9182.0,"agglosName":"Zorgho","ISO3":"BFA","Pop2015":25484.0,"lc_10_fraction":0.0084,"lc_20_fraction":0.02501,"lc_30_fraction":0.22369,"X2015":55.387809753418,"annual_mean_temp":28.1693077087402,"annual_precipitation":749.951782226562,"AEZ_NAME":"Tropic - warm / semiarid","UGS_fraction":0.2571},"geometry":{"type":"Point","coordinates":[-0.623492785305699,12.248898023747224]}},{"type":"Feature","properties":{"agglosID":9181.0,"agglosName":"Zonkwa","ISO3":"NGA","Pop2015":34476.0,"lc_10_fraction":0.03118,"lc_20_fraction":0.02752,"lc_30_fraction":0.14994,"X2015":90.8388519287109,"annual_mean_temp":23.7537860870361,"annual_precipitation":1417.02380371094,"AEZ_NAME":"Tropic - warm / subhumid","UGS_fraction":0.20864},"geometry":{"type":"Point","coordinates":[8.298891268321678,9.783316192371768]}},{"type":"Feature","properties":{"agglosID":9180.0,"agglosName":"Zonkizizwe","ISO3":"ZAF","Pop2015":37020.0,"lc_10_fraction":0.00855,"lc_20_fraction":0.00212,"lc_30_fraction":0.17206,"X2015":47.449592590332,"annual_mean_temp":16.0330200195312,"annual_precipitation":677.455627441406,"AEZ_NAME":"Subtropic - cool / semiarid","UGS_fraction":0.18273},"geometry":{"type":"Point","coordinates":[28.183081544707656,-26.411932297811338]}},{"type":"Feature","properties":{"agglosID":9179.0,"agglosName":"Zongo","ISO3":"COD","Pop2015":39500.0,"lc_10_fraction":0.20291,"lc_20_fraction":0.01417,"lc_30_fraction":0.18049,"X2015":39.1265487670898,"annual_mean_temp":25.7064342498779,"annual_precipitation":1525.95397949219,"AEZ_NAME":"Tropic - warm / humid","UGS_fraction":0.39757},"geometry":{"type":"Point","coordinates":[18.593092428200536,4.341858749029999]}},{"type":"Feature","properties":{"agglosID":9178.0,"agglosName":"Zombo","ISO3":"UGA","Pop2015":12718.0,"lc_10_fraction":0.15875,"lc_20_fraction":0.40606,"lc_30_fraction":0.3072,"X2015":28.3736476898193,"annual_mean_temp":20.1171531677246,"annual_precipitation":1300.24865722656,"AEZ_NAME":"Tropic - cool / humid","UGS_fraction":0.87201},"geometry":{"type":"Point","coordinates":[30.90934896754687,2.512833150656021]}},{"type":"Feature","properties":{"agglosID":9177.0,"agglosName":"Zomba","ISO3":"MWI","Pop2015":283884.0,"lc_10_fraction":0.17802,"lc_20_fraction":0.10473,"lc_30_fraction":0.03126,"X2015":17.567476272583,"annual_mean_temp":21.6624889373779,"annual_precipitation":1091.93151855469,"AEZ_NAME":"Tropic - warm / subhumid","UGS_fraction":0.31401},"geometry":{"type":"Point","coordinates":[35.337742361804718,-15.370301305713099]}},{"type":"Feature","properties":{"agglosID":9172.0,"agglosName":"Zitouna","ISO3":"DZA","Pop2015":10178.0,"lc_10_fraction":0.53009,"lc_20_fraction":0.00187,"lc_30_fraction":0.10358,"X2015":12.9475612640381,"annual_mean_temp":14.733681678772,"annual_precipitation":1372.66101074219,"AEZ_NAME":"Subtropic - warm / subhumid","UGS_fraction":0.63554},"geometry":{"type":"Point","coordinates":[6.459837766140728,36.988362827325989]}},{"type":"Feature","properties":{"agglosID":9171.0,"agglosName":"Zithobeni","ISO3":"ZAF","Pop2015":24321.0,"lc_10_fraction":0.01055,"lc_20_fraction":0.00105,"lc_30_fraction":0.07831,"X2015":40.6557960510254,"annual_mean_temp":17.1734466552734,"annual_precipitation":700.040344238281,"AEZ_NAME":"Subtropic - cool / semiarid","UGS_fraction":0.08991},"geometry":{"type":"Point","coordinates":[28.724871890372655,-25.78141825474065]}},{"type":"Feature","properties":{"agglosID":9170.0,"agglosName":"Ziniare","ISO3":"BFA","Pop2015":23461.0,"lc_10_fraction":0.00159,"lc_20_fraction":0.01555,"lc_30_fraction":0.21973,"X2015":52.627384185791,"annual_mean_temp":28.2093601226807,"annual_precipitation":705.696533203125,"AEZ_NAME":"Tropic - warm / semiarid","UGS_fraction":0.23687},"geometry":{"type":"Point","coordinates":[-1.297036518440561,12.598941672419187]}},{"type":"Feature","properties":{"agglosID":9168.0,"agglosName":"Zing","ISO3":"NGA","Pop2015":57279.0,"lc_10_fraction":0.01789,"lc_20_fraction":0.02335,"lc_30_fraction":0.06978,"X2015":69.0265731811523,"annual_mean_temp":26.1568546295166,"annual_precipitation":1172.58044433594,"AEZ_NAME":"Tropic - warm / subhumid","UGS_fraction":0.11102},"geometry":{"type":"Point","coordinates":[11.755053661954247,8.98912682447573]}},{"type":"Feature","properties":{"agglosID":9167.0,"agglosName":"Zinder","ISO3":"NER","Pop2015":260268.0,"lc_10_fraction":0.00236,"lc_20_fraction":0.00386,"lc_30_fraction":0.13832,"X2015":104.13680267334,"annual_mean_temp":27.9451923370361,"annual_precipitation":355.052642822266,"AEZ_NAME":"Tropic - warm / semiarid","UGS_fraction":0.14454},"geometry":{"type":"Point","coordinates":[8.980082850112947,13.812148985525571]}},{"type":"Feature","properties":{"agglosID":9166.0,"agglosName":"Zinara","ISO3":"EGY","Pop2015":61481.0,"lc_10_fraction":0.07464,"lc_20_fraction":0.02372,"lc_30_fraction":0.0,"X2015":44.9929809570312,"annual_mean_temp":20.0708637237549,"annual_precipitation":37.0486106872559,"AEZ_NAME":"Subtropic - warm / arid","UGS_fraction":0.09836},"geometry":{"type":"Point","coordinates":[31.007372863479007,30.6600027097709]}},{"type":"Feature","properties":{"agglosID":9164.0,"agglosName":"Ziguinchor","ISO3":"SEN","Pop2015":214936.0,"lc_10_fraction":0.15903,"lc_20_fraction":0.07613,"lc_30_fraction":0.03887,"X2015":38.9121856689453,"annual_mean_temp":26.4184284210205,"annual_precipitation":1257.21203613281,"AEZ_NAME":"Tropic - warm / semiarid","UGS_fraction":0.27403},"geometry":{"type":"Point","coordinates":[-16.2888388814037,12.558121276695652]}},{"type":"Feature","properties":{"agglosID":9163.0,"agglosName":"Zighoud youcef","ISO3":"DZA","Pop2015":31320.0,"lc_10_fraction":0.05841,"lc_20_fraction":0.00179,"lc_30_fraction":0.15119,"X2015":14.583493232727,"annual_mean_temp":15.266809463501,"annual_precipitation":817.825378417969,"AEZ_NAME":"Subtropic - warm / subhumid","UGS_fraction":0.21139},"geometry":{"type":"Point","coordinates":[6.699342916813187,36.536712191788428]}},{"type":"Feature","properties":{"agglosID":9162.0,"agglosName":"Zeway/batu","ISO3":"ETH","Pop2015":86784.0,"lc_10_fraction":0.00463,"lc_20_fraction":0.03319,"lc_30_fraction":0.02797,"X2015":24.174280166626,"annual_mean_temp":19.4935569763184,"annual_precipitation":857.667846679688,"AEZ_NAME":"Tropic - cool / subhumid","UGS_fraction":0.06579},"geometry":{"type":"Point","coordinates":[38.71972630668064,7.967288680159639]}},{"type":"Feature","properties":{"agglosID":9161.0,"agglosName":"Zeribet el oued","ISO3":"DZA","Pop2015":20712.0,"lc_10_fraction":0.00141,"lc_20_fraction":0.00022,"lc_30_fraction":0.0,"X2015":21.359354019165,"annual_mean_temp":21.7913055419922,"annual_precipitation":116.999618530273,"AEZ_NAME":"Subtropic - warm / arid","UGS_fraction":0.00163},"geometry":{"type":"Point","coordinates":[6.505020703210751,34.68276809544513]}},{"type":"Feature","properties":{"agglosID":9160.0,"agglosName":"Zeramdine","ISO3":"TUN","Pop2015":16909.0,"lc_10_fraction":0.00802,"lc_20_fraction":0.00191,"lc_30_fraction":0.11627,"X2015":14.3371105194092,"annual_mean_temp":18.9776992797852,"annual_precipitation":331.629577636719,"AEZ_NAME":"Subtropic - warm / semiarid","UGS_fraction":0.1262},"geometry":{"type":"Point","coordinates":[10.727875890946395,35.57413713840222]}},{"type":"Feature","properties":{"agglosID":9158.0,"agglosName":"Zengu","ISO3":"COD","Pop2015":19900.0,"lc_10_fraction":0.64525,"lc_20_fraction":0.16228,"lc_30_fraction":0.14661,"X2015":24.9254379272461,"annual_mean_temp":19.2956409454346,"annual_precipitation":1294.90002441406,"AEZ_NAME":"Tropic - cool / humid","UGS_fraction":0.95414},"geometry":{"type":"Point","coordinates":[30.987355762854955,2.208066490946701]}},{"type":"Feature","properties":{"agglosID":9157.0,"agglosName":"Zemmouri","ISO3":"DZA","Pop2015":15173.0,"lc_10_fraction":0.05764,"lc_20_fraction":0.01318,"lc_30_fraction":0.10789,"X2015":14.2117900848389,"annual_mean_temp":17.5703125,"annual_precipitation":800.163940429688,"AEZ_NAME":"Subtropic - warm / subhumid","UGS_fraction":0.17870999999999999},"geometry":{"type":"Point","coordinates":[3.598908766946322,36.786771912760688]}},{"type":"Feature","properties":{"agglosID":9156.0,"agglosName":"Zemmoura","ISO3":"DZA","Pop2015":27014.0,"lc_10_fraction":0.03787,"lc_20_fraction":0.00378,"lc_30_fraction":0.05612,"X2015":11.5812673568726,"annual_mean_temp":17.9296646118164,"annual_precipitation":418.881713867188,"AEZ_NAME":"Subtropic - warm / semiarid","UGS_fraction":0.09777},"geometry":{"type":"Point","coordinates":[0.753854892111602,35.72557767296214]}},{"type":"Feature","properties":{"agglosID":9155.0,"agglosName":"Zémio","ISO3":"CAF","Pop2015":12282.0,"lc_10_fraction":0.53043,"lc_20_fraction":0.03162,"lc_30_fraction":0.28884,"X2015":31.0807342529297,"annual_mean_temp":25.2280693054199,"annual_precipitation":1570.33386230469,"AEZ_NAME":"Tropic - warm / humid","UGS_fraction":0.8508899999999999},"geometry":{"type":"Point","coordinates":[25.1391599936668,5.032312985547701]}},{"type":"Feature","properties":{"agglosID":9154.0,"agglosName":"Zemamra","ISO3":"MAR","Pop2015":13389.0,"lc_10_fraction":0.00231,"lc_20_fraction":0.00741,"lc_30_fraction":0.04077,"X2015":18.4030380249023,"annual_mean_temp":18.2215404510498,"annual_precipitation":340.05224609375,"AEZ_NAME":"Subtropic - warm / semiarid","UGS_fraction":0.05049},"geometry":{"type":"Point","coordinates":[-8.706062665342094,32.62094393416152]}},{"type":"Feature","properties":{"agglosID":9153.0,"agglosName":"Zelfana","ISO3":"DZA","Pop2015":14731.0,"lc_10_fraction":0.02424,"lc_20_fraction":0.0,"lc_30_fraction":0.0,"X2015":22.6387672424316,"annual_mean_temp":21.910701751709,"annual_precipitation":62.8537673950195,"AEZ_NAME":"Subtropic - warm / arid","UGS_fraction":0.02424},"geometry":{"type":"Point","coordinates":[4.225453390528008,32.395018492555298]}},{"type":"Feature","properties":{"agglosID":9151.0,"agglosName":"Zegoua","ISO3":"MLI","Pop2015":25139.0,"lc_10_fraction":0.00488,"lc_20_fraction":0.00961,"lc_30_fraction":0.08194,"X2015":34.1436614990234,"annual_mean_temp":27.2129325866699,"annual_precipitation":1104.18615722656,"AEZ_NAME":"Tropic - warm / subhumid","UGS_fraction":0.09643},"geometry":{"type":"Point","coordinates":[-5.653450505310686,10.489003267803272]}},{"type":"Feature","properties":{"agglosID":9149.0,"agglosName":"Zeghaia","ISO3":"DZA","Pop2015":15743.0,"lc_10_fraction":0.0905,"lc_20_fraction":0.00529,"lc_30_fraction":0.2155,"X2015":16.0949954986572,"annual_mean_temp":16.2955112457275,"annual_precipitation":741.981384277344,"AEZ_NAME":"Subtropic - warm / subhumid","UGS_fraction":0.31129},"geometry":{"type":"Point","coordinates":[6.17591401817212,36.47146279902439]}},{"type":"Feature","properties":{"agglosID":9148.0,"agglosName":"Zeboudja","ISO3":"DZA","Pop2015":10462.0,"lc_10_fraction":0.04835,"lc_20_fraction":0.01914,"lc_30_fraction":0.28001,"X2015":11.6327476501465,"annual_mean_temp":16.9712066650391,"annual_precipitation":539.590087890625,"AEZ_NAME":"Subtropic - warm / subhumid","UGS_fraction":0.3475},"geometry":{"type":"Point","coordinates":[1.425605947482471,36.356003567743368]}},{"type":"Feature","properties":{"agglosID":9147.0,"agglosName":"Zebediela","ISO3":"ZAF","Pop2015":28448.0,"lc_10_fraction":0.02683,"lc_20_fraction":0.20271,"lc_30_fraction":0.21724,"X2015":20.8419151306152,"annual_mean_temp":19.5525379180908,"annual_precipitation":541.717346191406,"AEZ_NAME":"Tropic - warm / arid","UGS_fraction":0.44677999999999998},"geometry":{"type":"Point","coordinates":[29.29975825315988,-24.358668022460308]}},{"type":"Feature","properties":{"agglosID":9146.0,"agglosName":"Zeaglo","ISO3":"CIV","Pop2015":12584.0,"lc_10_fraction":0.24782,"lc_20_fraction":0.01486,"lc_30_fraction":0.06436,"X2015":23.1084861755371,"annual_mean_temp":25.4803771972656,"annual_precipitation":1709.32934570312,"AEZ_NAME":"Tropic - warm / humid","UGS_fraction":0.32704},"geometry":{"type":"Point","coordinates":[-7.834905058531383,6.552849498338487]}},{"type":"Feature","properties":{"agglosID":9145.0,"agglosName":"Zayyan","ISO3":"EGY","Pop2015":11051.0,"lc_10_fraction":0.00496,"lc_20_fraction":0.00148,"lc_30_fraction":0.00933,"X2015":30.9520664215088,"annual_mean_temp":20.657506942749,"annual_precipitation":104.193176269531,"AEZ_NAME":"Subtropic - warm / arid","UGS_fraction":0.01577},"geometry":{"type":"Point","coordinates":[31.501931312191457,31.401527448818393]}},{"type":"Feature","properties":{"agglosID":9144.0,"agglosName":"Zayd","ISO3":"EGY","Pop2015":12669.0,"lc_10_fraction":0.21302,"lc_20_fraction":0.0128,"lc_30_fraction":0.0,"X2015":50.3571472167969,"annual_mean_temp":21.4714660644531,"annual_precipitation":10.0,"AEZ_NAME":"Subtropic - warm / arid","UGS_fraction":0.22582},"geometry":{"type":"Point","coordinates":[30.708157439143908,29.359249314483749]}},{"type":"Feature","properties":{"agglosID":9143.0,"agglosName":"Zawiyyat sultan","ISO3":"EGY","Pop2015":23134.0,"lc_10_fraction":0.0124,"lc_20_fraction":0.00346,"lc_30_fraction":0.00071,"X2015":55.5046539306641,"annual_mean_temp":21.5394134521484,"annual_precipitation":4.95650911331177,"AEZ_NAME":"Subtropic - warm / arid","UGS_fraction":0.016569999999999999},"geometry":{"type":"Point","coordinates":[30.820755187040093,28.073185122997328]}},{"type":"Feature","properties":{"agglosID":9142.0,"agglosName":"Zawiyyat saqr","ISO3":"EGY","Pop2015":31287.0,"lc_10_fraction":0.00038,"lc_20_fraction":0.01242,"lc_30_fraction":0.00325,"X2015":40.4725189208984,"annual_mean_temp":22.6138401031494,"annual_precipitation":103.302696228027,"AEZ_NAME":"Subtropic - warm / arid","UGS_fraction":0.016050000000000003},"geometry":{"type":"Point","coordinates":[30.202010025203657,30.930721705398118]}},{"type":"Feature","properties":{"agglosID":9140.0,"agglosName":"Zawiyyat humur","ISO3":"EGY","Pop2015":33395.0,"lc_10_fraction":0.00961,"lc_20_fraction":0.01263,"lc_30_fraction":0.00002,"X2015":41.5370025634766,"annual_mean_temp":21.2736949920654,"annual_precipitation":76.9946136474609,"AEZ_NAME":"Subtropic - warm / arid","UGS_fraction":0.022260000000000003},"geometry":{"type":"Point","coordinates":[30.46130857346698,30.8770463355101]}},{"type":"Feature","properties":{"agglosID":9139.0,"agglosName":"Zawiyyat al-nawiya","ISO3":"EGY","Pop2015":13320.0,"lc_10_fraction":0.02113,"lc_20_fraction":0.00508,"lc_30_fraction":0.0,"X2015":54.4100189208984,"annual_mean_temp":21.4246997833252,"annual_precipitation":5.0,"AEZ_NAME":"Subtropic - warm / arid","UGS_fraction":0.02621},"geometry":{"type":"Point","coordinates":[30.87401351412762,28.921518799701994]}},{"type":"Feature","properties":{"agglosID":9137.0,"agglosName":"Zawiyyat al-maslub","ISO3":"EGY","Pop2015":19309.0,"lc_10_fraction":0.06805,"lc_20_fraction":0.00233,"lc_30_fraction":0.0,"X2015":53.2685508728027,"annual_mean_temp":21.6224555969238,"annual_precipitation":10.0,"AEZ_NAME":"Subtropic - warm / arid","UGS_fraction":0.07038},"geometry":{"type":"Point","coordinates":[31.201676504229657,29.303059074904345]}},{"type":"Feature","properties":{"agglosID":9135.0,"agglosName":"Zawiyyat al-baqli","ISO3":"EGY","Pop2015":12443.0,"lc_10_fraction":0.05394,"lc_20_fraction":0.01272,"lc_30_fraction":0.0,"X2015":43.7387733459473,"annual_mean_temp":20.2562789916992,"annual_precipitation":36.138355255127,"AEZ_NAME":"Subtropic - warm / arid","UGS_fraction":0.06666},"geometry":{"type":"Point","coordinates":[30.805788387411356,30.62286820722859]}},{"type":"Feature","properties":{"agglosID":9133.0,"agglosName":"Zauro","ISO3":"NGA","Pop2015":14634.0,"lc_10_fraction":0.00219,"lc_20_fraction":0.00825,"lc_30_fraction":0.06982,"X2015":89.7447509765625,"annual_mean_temp":28.3508205413818,"annual_precipitation":768.377868652344,"AEZ_NAME":"Tropic - warm / semiarid","UGS_fraction":0.08026},"geometry":{"type":"Point","coordinates":[4.306717648698872,12.501210458150402]}},{"type":"Feature","properties":{"agglosID":9131.0,"agglosName":"Zarzis","ISO3":"TUN","Pop2015":72820.0,"lc_10_fraction":0.00113,"lc_20_fraction":0.00081,"lc_30_fraction":0.10956,"X2015":19.2317218780518,"annual_mean_temp":20.0570983886719,"annual_precipitation":203.232864379883,"AEZ_NAME":"Subtropic - warm / arid","UGS_fraction":0.1115},"geometry":{"type":"Point","coordinates":[11.09574774262358,33.533725717696]}},{"type":"Feature","properties":{"agglosID":9129.0,"agglosName":"Zaria","ISO3":"NGA","Pop2015":796340.0,"lc_10_fraction":0.09513,"lc_20_fraction":0.02007,"lc_30_fraction":0.05687,"X2015":111.200721740723,"annual_mean_temp":25.1354675292969,"annual_precipitation":1006.57061767578,"AEZ_NAME":"Tropic - warm / semiarid","UGS_fraction":0.17207},"geometry":{"type":"Point","coordinates":[7.726924821055746,11.105669367695818]}},{"type":"Feature","properties":{"agglosID":9127.0,"agglosName":"Zarafah","ISO3":"SDN","Pop2015":33150.0,"lc_10_fraction":0.00016,"lc_20_fraction":0.0004,"lc_30_fraction":0.91342,"X2015":42.7763023376465,"annual_mean_temp":27.2344264984131,"annual_precipitation":421.3154296875,"AEZ_NAME":"Tropic - warm / semiarid","UGS_fraction":0.91398},"geometry":{"type":"Point","coordinates":[25.71103927512431,11.676206790989302]}},{"type":"Feature","properties":{"agglosID":9126.0,"agglosName":"Zaouiat cheikh","ISO3":"MAR","Pop2015":25600.0,"lc_10_fraction":0.27343,"lc_20_fraction":0.03207,"lc_30_fraction":0.07581,"X2015":21.195707321167,"annual_mean_temp":16.4255046844482,"annual_precipitation":671.888549804688,"AEZ_NAME":"Subtropic - warm / subhumid","UGS_fraction":0.38131},"geometry":{"type":"Point","coordinates":[-5.917255304807457,32.64323242574501]}},{"type":"Feature","properties":{"agglosID":9125.0,"agglosName":"Zanzibar","ISO3":"TZA","Pop2015":733039.0,"lc_10_fraction":0.5338,"lc_20_fraction":0.02609,"lc_30_fraction":0.14331,"X2015":13.53187084198,"annual_mean_temp":26.1862277984619,"annual_precipitation":1560.83972167969,"AEZ_NAME":"Tropic - warm / subhumid","UGS_fraction":0.7032},"geometry":{"type":"Point","coordinates":[39.22239700814748,-6.113274773961921]}},{"type":"Feature","properties":{"agglosID":9124.0,"agglosName":"Zango","ISO3":"NGA","Pop2015":26582.0,"lc_10_fraction":0.0016,"lc_20_fraction":0.00336,"lc_30_fraction":0.03556,"X2015":121.208457946777,"annual_mean_temp":26.7795391082764,"annual_precipitation":494.37109375,"AEZ_NAME":"Tropic - warm / semiarid","UGS_fraction":0.04052},"geometry":{"type":"Point","coordinates":[8.482881058642566,13.053918110572403]}},