{"type":"FeatureCollection","features":[{"type":"Feature","properties":{"agglosID":1.0,"agglosName":"10 ramadan","ISO3":"EGY","Pop2020":184173.0,"lc_10_fraction":0.00259,"lc_20_fraction":0.0044,"lc_30_fraction":0.01145,"PM25_2020":41.1567687988281,"annual_mean_temp":21.0399494171143,"annual_precipitation":28.8035354614258,"AEZ_NAME":"Subtropic - warm / arid","UGS_fraction":0.018439999999999999},"geometry":{"type":"Point","coordinates":[31.804065866666734,30.273822334411464]}},{"type":"Feature","properties":{"agglosID":2.0,"agglosName":"24 al-qurashy","ISO3":"SDN","Pop2020":25340.0,"lc_10_fraction":0.04064,"lc_20_fraction":0.00248,"lc_30_fraction":0.54294,"PM25_2020":35.8284721374512,"annual_mean_temp":29.0179615020752,"annual_precipitation":256.745178222656,"AEZ_NAME":"Tropic - warm / arid","UGS_fraction":0.58606},"geometry":{"type":"Point","coordinates":[32.77407547607497,14.246983859756173]}},{"type":"Feature","properties":{"agglosID":4.0,"agglosName":"42nd hill","ISO3":"ZAF","Pop2020":20312.0,"lc_10_fraction":0.00582,"lc_20_fraction":0.00263,"lc_30_fraction":0.3183,"PM25_2020":29.4682502746582,"annual_mean_temp":14.4364929199219,"annual_precipitation":714.180969238281,"AEZ_NAME":"Subtropic - cool / semiarid","UGS_fraction":0.32675000000000006},"geometry":{"type":"Point","coordinates":[29.09931151230025,-28.238928812633966]}},{"type":"Feature","properties":{"agglosID":5.0,"agglosName":"Siigadhere (caabuduwaaq, balan-bale)","ISO3":"SOM","Pop2020":92597.0,"lc_10_fraction":0.0,"lc_20_fraction":0.05612,"lc_30_fraction":0.66205,"PM25_2020":16.0161838531494,"annual_mean_temp":27.470832824707,"annual_precipitation":243.409530639648,"AEZ_NAME":"Tropic - warm / arid","UGS_fraction":0.71817},"geometry":{"type":"Point","coordinates":[46.24060201107794,6.238750133221466]}},{"type":"Feature","properties":{"agglosID":6.0,"agglosName":"'adaado","ISO3":"SOM","Pop2020":50200.0,"lc_10_fraction":0.0003,"lc_20_fraction":0.05189,"lc_30_fraction":0.34168,"PM25_2020":18.503963470459,"annual_mean_temp":27.4701385498047,"annual_precipitation":218.924209594727,"AEZ_NAME":"Tropic - warm / arid","UGS_fraction":0.39387},"geometry":{"type":"Point","coordinates":[46.63127254356574,6.137001686841984]}},{"type":"Feature","properties":{"agglosID":7.0,"agglosName":"Aaliyab","ISO3":"SDN","Pop2020":13440.0,"lc_10_fraction":0.00894,"lc_20_fraction":0.00208,"lc_30_fraction":0.0235,"PM25_2020":40.6340560913086,"annual_mean_temp":29.4110565185547,"annual_precipitation":65.4465484619141,"AEZ_NAME":"Tropic - warm / arid","UGS_fraction":0.03452},"geometry":{"type":"Point","coordinates":[33.78584855260047,17.308866091511264]}},{"type":"Feature","properties":{"agglosID":8.0,"agglosName":"Aasalaya","ISO3":"SDN","Pop2020":10412.0,"lc_10_fraction":0.00059,"lc_20_fraction":0.0023,"lc_30_fraction":0.38684,"PM25_2020":36.9145851135254,"annual_mean_temp":28.8471393585205,"annual_precipitation":322.924438476562,"AEZ_NAME":"Tropic - warm / semiarid","UGS_fraction":0.38973},"geometry":{"type":"Point","coordinates":[32.71671905222753,13.24081178621772]}},{"type":"Feature","properties":{"agglosID":9.0,"agglosName":"Aba","ISO3":"NGA","Pop2020":1731615.0,"lc_10_fraction":0.70184,"lc_20_fraction":0.00125,"lc_30_fraction":0.02679,"PM25_2020":49.8105850219727,"annual_mean_temp":26.3269824981689,"annual_precipitation":2332.9091796875,"AEZ_NAME":"Tropic - warm / humid","UGS_fraction":0.72988},"geometry":{"type":"Point","coordinates":[7.362645460417164,5.210090283357726]}},{"type":"Feature","properties":{"agglosID":10.0,"agglosName":"Aba","ISO3":"COD","Pop2020":44500.0,"lc_10_fraction":0.32381,"lc_20_fraction":0.23007,"lc_30_fraction":0.36935,"PM25_2020":24.7820930480957,"annual_mean_temp":24.1870880126953,"annual_precipitation":1444.42211914062,"AEZ_NAME":"Tropic - warm / humid","UGS_fraction":0.92323},"geometry":{"type":"Point","coordinates":[30.199182373623289,3.856151074832392]}},{"type":"Feature","properties":{"agglosID":11.0,"agglosName":"Aba al-waqf","ISO3":"EGY","Pop2020":53956.0,"lc_10_fraction":0.08198,"lc_20_fraction":0.00834,"lc_30_fraction":0.00128,"PM25_2020":44.7800979614258,"annual_mean_temp":21.5196952819824,"annual_precipitation":5.00000047683716,"AEZ_NAME":"Subtropic - warm / arid","UGS_fraction":0.0916},"geometry":{"type":"Point","coordinates":[30.769391492979208,28.587861020786315]}},{"type":"Feature","properties":{"agglosID":13.0,"agglosName":"Abadiyyat al-ruda","ISO3":"EGY","Pop2020":11051.0,"lc_10_fraction":0.0085,"lc_20_fraction":0.00028,"lc_30_fraction":0.00065,"PM25_2020":32.901294708252,"annual_mean_temp":19.9213943481445,"annual_precipitation":70.4965744018555,"AEZ_NAME":"Subtropic - warm / arid","UGS_fraction":0.009430000000000001},"geometry":{"type":"Point","coordinates":[30.891789738659776,31.07483026024874]}},{"type":"Feature","properties":{"agglosID":14.0,"agglosName":"Abadla","ISO3":"DZA","Pop2020":15254.0,"lc_10_fraction":0.01064,"lc_20_fraction":0.00163,"lc_30_fraction":0.00049,"PM25_2020":25.7374820709229,"annual_mean_temp":22.5859928131104,"annual_precipitation":69.9573593139648,"AEZ_NAME":"Subtropic - warm / arid","UGS_fraction":0.01276},"geometry":{"type":"Point","coordinates":[-2.708482438314387,31.03450965374789]}},{"type":"Feature","properties":{"agglosID":15.0,"agglosName":"Abaji","ISO3":"NGA","Pop2020":34363.0,"lc_10_fraction":0.13195,"lc_20_fraction":0.06867,"lc_30_fraction":0.08279,"PM25_2020":66.31494140625,"annual_mean_temp":27.5176258087158,"annual_precipitation":1204.21411132812,"AEZ_NAME":"Tropic - warm / subhumid","UGS_fraction":0.28341000000000007},"geometry":{"type":"Point","coordinates":[6.950990899851124,8.471924666239805]}},{"type":"Feature","properties":{"agglosID":17.0,"agglosName":"Abakaliki","ISO3":"NGA","Pop2020":725581.0,"lc_10_fraction":0.35106,"lc_20_fraction":0.14991,"lc_30_fraction":0.07996,"PM25_2020":29.7058258056641,"annual_mean_temp":27.4216690063477,"annual_precipitation":1873.9169921875,"AEZ_NAME":"Tropic - warm / subhumid","UGS_fraction":0.58093},"geometry":{"type":"Point","coordinates":[7.983343323418184,6.402304436840312]}},{"type":"Feature","properties":{"agglosID":18.0,"agglosName":"Abala","ISO3":"ETH","Pop2020":17964.0,"lc_10_fraction":0.00091,"lc_20_fraction":0.32171,"lc_30_fraction":0.23965,"PM25_2020":35.5516090393066,"annual_mean_temp":23.0520191192627,"annual_precipitation":634.915283203125,"AEZ_NAME":"Tropic - cool / semiarid","UGS_fraction":0.56227},"geometry":{"type":"Point","coordinates":[39.75258703794084,13.358169233689666]}},{"type":"Feature","properties":{"agglosID":19.0,"agglosName":"Abala maidagi","ISO3":"NER","Pop2020":19002.0,"lc_10_fraction":0.00074,"lc_20_fraction":0.00245,"lc_30_fraction":0.64427,"PM25_2020":45.7961883544922,"annual_mean_temp":29.5582828521729,"annual_precipitation":267.964874267578,"AEZ_NAME":"Tropic - warm / semiarid","UGS_fraction":0.64746},"geometry":{"type":"Point","coordinates":[3.417053034198261,14.923483718165685]}},{"type":"Feature","properties":{"agglosID":20.0,"agglosName":"Abalak","ISO3":"NER","Pop2020":26231.0,"lc_10_fraction":0.03878,"lc_20_fraction":0.01177,"lc_30_fraction":0.33865,"PM25_2020":52.0779609680176,"annual_mean_temp":28.3319759368896,"annual_precipitation":271.315063476562,"AEZ_NAME":"Tropic - warm / semiarid","UGS_fraction":0.3892},"geometry":{"type":"Point","coordinates":[6.282519651352372,15.45980633286376]}},{"type":"Feature","properties":{"agglosID":23.0,"agglosName":"Abdelmalek ramdane","ISO3":"DZA","Pop2020":11566.0,"lc_10_fraction":0.04496,"lc_20_fraction":0.00745,"lc_30_fraction":0.17487,"PM25_2020":11.1955032348633,"annual_mean_temp":17.2480640411377,"annual_precipitation":397.378265380859,"AEZ_NAME":"Subtropic - warm / semiarid","UGS_fraction":0.22727999999999999},"geometry":{"type":"Point","coordinates":[0.272973915940881,36.105340961392737]}},{"type":"Feature","properties":{"agglosID":24.0,"agglosName":"Abderafi","ISO3":"ETH","Pop2020":17227.0,"lc_10_fraction":0.03728,"lc_20_fraction":0.01242,"lc_30_fraction":0.81427,"PM25_2020":34.2357482910156,"annual_mean_temp":28.279224395752,"annual_precipitation":688.8740234375,"AEZ_NAME":"Tropic - warm / semiarid","UGS_fraction":0.86397},"geometry":{"type":"Point","coordinates":[36.47064047465781,13.699303156061778]}},{"type":"Feature","properties":{"agglosID":25.0,"agglosName":"Abdi ii","ISO3":"TCD","Pop2020":21649.0,"lc_10_fraction":0.00182,"lc_20_fraction":0.01066,"lc_30_fraction":0.86672,"PM25_2020":33.5561294555664,"annual_mean_temp":27.9540939331055,"annual_precipitation":523.687072753906,"AEZ_NAME":"Tropic - warm / semiarid","UGS_fraction":0.8792000000000001},"geometry":{"type":"Point","coordinates":[21.30450248453273,12.807257378119946]}},{"type":"Feature","properties":{"agglosID":26.0,"agglosName":"Abduka","ISO3":"NGA","Pop2020":13285.0,"lc_10_fraction":0.1037,"lc_20_fraction":0.05093,"lc_30_fraction":0.21541,"PM25_2020":50.4636917114258,"annual_mean_temp":25.6651477813721,"annual_precipitation":1213.50793457031,"AEZ_NAME":"Tropic - warm / subhumid","UGS_fraction":0.37004},"geometry":{"type":"Point","coordinates":[4.314671892632777,8.259099921257145]}},{"type":"Feature","properties":{"agglosID":27.0,"agglosName":"Abéché","ISO3":"TCD","Pop2020":148091.0,"lc_10_fraction":0.00318,"lc_20_fraction":0.00733,"lc_30_fraction":0.54301,"PM25_2020":39.0261344909668,"annual_mean_temp":28.8305530548096,"annual_precipitation":378.455474853516,"AEZ_NAME":"Tropic - warm / semiarid","UGS_fraction":0.55352},"geometry":{"type":"Point","coordinates":[20.83296173071733,13.826691990669849]}},{"type":"Feature","properties":{"agglosID":28.0,"agglosName":"Abengourou","ISO3":"CIV","Pop2020":126471.0,"lc_10_fraction":0.17833,"lc_20_fraction":0.08604,"lc_30_fraction":0.19839,"PM25_2020":21.3424491882324,"annual_mean_temp":26.4749145507812,"annual_precipitation":1242.751953125,"AEZ_NAME":"Tropic - warm / humid","UGS_fraction":0.46276},"geometry":{"type":"Point","coordinates":[-3.495959819793304,6.73568443839571]}},{"type":"Feature","properties":{"agglosID":29.0,"agglosName":"Abeokuta","ISO3":"NGA","Pop2020":924438.0,"lc_10_fraction":0.24322,"lc_20_fraction":0.03559,"lc_30_fraction":0.10151,"PM25_2020":44.7345886230469,"annual_mean_temp":26.8462562561035,"annual_precipitation":1239.96252441406,"AEZ_NAME":"Tropic - warm / subhumid","UGS_fraction":0.38032},"geometry":{"type":"Point","coordinates":[3.374165768981372,7.144530991840988]}},{"type":"Feature","properties":{"agglosID":30.0,"agglosName":"Abetifi","ISO3":"GHA","Pop2020":14710.0,"lc_10_fraction":0.26965,"lc_20_fraction":0.00054,"lc_30_fraction":0.37193,"PM25_2020":37.2231025695801,"annual_mean_temp":23.6276378631592,"annual_precipitation":1451.35388183594,"AEZ_NAME":"Tropic - warm / humid","UGS_fraction":0.64212},"geometry":{"type":"Point","coordinates":[-0.73996825277009,6.67539695464492]}},{"type":"Feature","properties":{"agglosID":31.0,"agglosName":"Abgadam camp","ISO3":"TCD","Pop2020":24850.0,"lc_10_fraction":0.00083,"lc_20_fraction":0.01454,"lc_30_fraction":0.77986,"PM25_2020":34.7565269470215,"annual_mean_temp":26.4989032745361,"annual_precipitation":672.814819335938,"AEZ_NAME":"Tropic - warm / semiarid","UGS_fraction":0.79523},"geometry":{"type":"Point","coordinates":[22.844832840173493,10.950704604219498]}},{"type":"Feature","properties":{"agglosID":32.0,"agglosName":"Abidjan","ISO3":"CIV","Pop2020":5877152.0,"lc_10_fraction":0.1183,"lc_20_fraction":0.011,"lc_30_fraction":0.16962,"PM25_2020":21.3401851654053,"annual_mean_temp":26.4561309814453,"annual_precipitation":1705.65014648438,"AEZ_NAME":"Tropic - warm / humid","UGS_fraction":0.29891999999999999},"geometry":{"type":"Point","coordinates":[-3.959696310635764,5.36893713839477]}},{"type":"Feature","properties":{"agglosID":34.0,"agglosName":"Abinsi","ISO3":"NGA","Pop2020":11042.0,"lc_10_fraction":0.23483,"lc_20_fraction":0.05342,"lc_30_fraction":0.03756,"PM25_2020":64.0350189208984,"annual_mean_temp":27.4466743469238,"annual_precipitation":1313.68273925781,"AEZ_NAME":"Tropic - warm / subhumid","UGS_fraction":0.32581},"geometry":{"type":"Point","coordinates":[8.745325560718902,7.750905774941898]}},{"type":"Feature","properties":{"agglosID":35.0,"agglosName":"Abiriba","ISO3":"NGA","Pop2020":42631.0,"lc_10_fraction":0.43302,"lc_20_fraction":0.00001,"lc_30_fraction":0.08843,"PM25_2020":32.5221290588379,"annual_mean_temp":26.5052967071533,"annual_precipitation":2093.43408203125,"AEZ_NAME":"Tropic - warm / subhumid","UGS_fraction":0.52146},"geometry":{"type":"Point","coordinates":[7.734539827205012,5.702521447078166]}},{"type":"Feature","properties":{"agglosID":38.0,"agglosName":"Abiyi adi","ISO3":"ETH","Pop2020":31062.0,"lc_10_fraction":0.01157,"lc_20_fraction":0.10527,"lc_30_fraction":0.16228,"PM25_2020":27.7127437591553,"annual_mean_temp":21.6305313110352,"annual_precipitation":665.862243652344,"AEZ_NAME":"Tropic - cool / semiarid","UGS_fraction":0.27912000000000006},"geometry":{"type":"Point","coordinates":[38.99046591147368,13.63167348560982]}},{"type":"Feature","properties":{"agglosID":39.0,"agglosName":"Abiyot fana","ISO3":"ETH","Pop2020":13314.0,"lc_10_fraction":0.41748,"lc_20_fraction":0.09636,"lc_30_fraction":0.00295,"PM25_2020":21.8574771881104,"annual_mean_temp":17.7814083099365,"annual_precipitation":1491.40417480469,"AEZ_NAME":"Tropic - cool / subhumid","UGS_fraction":0.5167900000000001},"geometry":{"type":"Point","coordinates":[37.14708205623987,11.325716893646384]}},{"type":"Feature","properties":{"agglosID":44.0,"agglosName":"Abofour","ISO3":"GHA","Pop2020":17310.0,"lc_10_fraction":0.2343,"lc_20_fraction":0.0021,"lc_30_fraction":0.2954,"PM25_2020":32.8069381713867,"annual_mean_temp":24.8002605438232,"annual_precipitation":1276.02526855469,"AEZ_NAME":"Tropic - warm / humid","UGS_fraction":0.5318},"geometry":{"type":"Point","coordinates":[-1.732906262693716,7.132035844133278]}},{"type":"Feature","properties":{"agglosID":45.0,"agglosName":"Abogwa","ISO3":"NGA","Pop2020":22467.0,"lc_10_fraction":0.27069,"lc_20_fraction":0.00013,"lc_30_fraction":0.1892,"PM25_2020":46.9995727539062,"annual_mean_temp":26.6991634368896,"annual_precipitation":1574.46862792969,"AEZ_NAME":"Tropic - warm / subhumid","UGS_fraction":0.46002},"geometry":{"type":"Point","coordinates":[3.713054577389682,6.638323740337358]}},{"type":"Feature","properties":{"agglosID":46.0,"agglosName":"Aboisso","ISO3":"CIV","Pop2020":52186.0,"lc_10_fraction":0.43811,"lc_20_fraction":0.00235,"lc_30_fraction":0.05138,"PM25_2020":22.8884105682373,"annual_mean_temp":26.7081413269043,"annual_precipitation":1715.24597167969,"AEZ_NAME":"Tropic - warm / humid","UGS_fraction":0.49184},"geometry":{"type":"Point","coordinates":[-3.211265271063282,5.471002684939308]}},{"type":"Feature","properties":{"agglosID":47.0,"agglosName":"Aboisso-comoe","ISO3":"CIV","Pop2020":18203.0,"lc_10_fraction":0.32176,"lc_20_fraction":0.0761,"lc_30_fraction":0.08307,"PM25_2020":20.6628894805908,"annual_mean_temp":26.2986965179443,"annual_precipitation":1598.80590820312,"AEZ_NAME":"Tropic - warm / humid","UGS_fraction":0.48092999999999999},"geometry":{"type":"Point","coordinates":[-3.40406006533381,5.734464857698256]}},{"type":"Feature","properties":{"agglosID":48.0,"agglosName":"Abolou","ISO3":"BEN","Pop2020":23909.0,"lc_10_fraction":0.7783,"lc_20_fraction":0.03229,"lc_30_fraction":0.03427,"PM25_2020":34.4247779846191,"annual_mean_temp":26.8357620239258,"annual_precipitation":1050.96997070312,"AEZ_NAME":"Tropic - warm / subhumid","UGS_fraction":0.84486},"geometry":{"type":"Point","coordinates":[2.142636610441944,6.849597055176652]}},{"type":"Feature","properties":{"agglosID":49.0,"agglosName":"Abomey","ISO3":"BEN","Pop2020":385036.0,"lc_10_fraction":0.36849,"lc_20_fraction":0.1112,"lc_30_fraction":0.07368,"PM25_2020":34.5814323425293,"annual_mean_temp":26.9503612518311,"annual_precipitation":1055.9365234375,"AEZ_NAME":"Tropic - warm / subhumid","UGS_fraction":0.5533699999999999},"geometry":{"type":"Point","coordinates":[2.063444078817872,7.161470749856048]}},{"type":"Feature","properties":{"agglosID":51.0,"agglosName":"Abomsa","ISO3":"ETH","Pop2020":20989.0,"lc_10_fraction":0.01623,"lc_20_fraction":0.16608,"lc_30_fraction":0.02348,"PM25_2020":24.0778217315674,"annual_mean_temp":20.7977027893066,"annual_precipitation":842.219970703125,"AEZ_NAME":"Tropic - cool / semiarid","UGS_fraction":0.20579},"geometry":{"type":"Point","coordinates":[39.83311458081847,8.487028893394318]}},{"type":"Feature","properties":{"agglosID":52.0,"agglosName":"Abong-mbang","ISO3":"CMR","Pop2020":19043.0,"lc_10_fraction":0.13929,"lc_20_fraction":0.0,"lc_30_fraction":0.28894,"PM25_2020":33.8164482116699,"annual_mean_temp":23.7160949707031,"annual_precipitation":1605.26745605469,"AEZ_NAME":"Tropic - warm / humid","UGS_fraction":0.42823},"geometry":{"type":"Point","coordinates":[13.178405707047333,3.976549843135501]}},{"type":"Feature","properties":{"agglosID":53.0,"agglosName":"Abongoua 1","ISO3":"CIV","Pop2020":13793.0,"lc_10_fraction":0.28151,"lc_20_fraction":0.05572,"lc_30_fraction":0.09746,"PM25_2020":20.8873844146729,"annual_mean_temp":26.6044540405273,"annual_precipitation":1124.56848144531,"AEZ_NAME":"Tropic - warm / subhumid","UGS_fraction":0.43468999999999999},"geometry":{"type":"Point","coordinates":[-4.107510584581393,6.657285591267308]}},{"type":"Feature","properties":{"agglosID":54.0,"agglosName":"Abonnema","ISO3":"NGA","Pop2020":63020.0,"lc_10_fraction":0.33798,"lc_20_fraction":0.0,"lc_30_fraction":0.09027,"PM25_2020":45.5124168395996,"annual_mean_temp":26.4585781097412,"annual_precipitation":2716.47412109375,"AEZ_NAME":"Tropic - warm / humid","UGS_fraction":0.42825},"geometry":{"type":"Point","coordinates":[6.76614598096308,4.746611896437824]}},{"type":"Feature","properties":{"agglosID":55.0,"agglosName":"Abora","ISO3":"ETH","Pop2020":14210.0,"lc_10_fraction":0.10594,"lc_20_fraction":0.04394,"lc_30_fraction":0.01478,"PM25_2020":16.734884262085,"annual_mean_temp":16.3582305908203,"annual_precipitation":1757.30041503906,"AEZ_NAME":"Tropic - cool / subhumid","UGS_fraction":0.16466},"geometry":{"type":"Point","coordinates":[37.02925636744687,9.986362047686516]}},{"type":"Feature","properties":{"agglosID":57.0,"agglosName":"Abou el hassan","ISO3":"DZA","Pop2020":17169.0,"lc_10_fraction":0.04763,"lc_20_fraction":0.02653,"lc_30_fraction":0.25446,"PM25_2020":10.9810018539429,"annual_mean_temp":17.8938751220703,"annual_precipitation":464.321197509766,"AEZ_NAME":"Subtropic - warm / subhumid","UGS_fraction":0.32862},"geometry":{"type":"Point","coordinates":[1.185848455133957,36.4225726800758]}},{"type":"Feature","properties":{"agglosID":58.0,"agglosName":"Aboude-kouassikro","ISO3":"CIV","Pop2020":24522.0,"lc_10_fraction":0.45344,"lc_20_fraction":0.10731,"lc_30_fraction":0.08729,"PM25_2020":20.5124797821045,"annual_mean_temp":26.6103630065918,"annual_precipitation":1307.77905273438,"AEZ_NAME":"Tropic - warm / subhumid","UGS_fraction":0.64804},"geometry":{"type":"Point","coordinates":[-4.533898271643716,5.892319527141344]}},{"type":"Feature","properties":{"agglosID":59.0,"agglosName":"Abougoudam","ISO3":"TCD","Pop2020":18339.0,"lc_10_fraction":0.0,"lc_20_fraction":0.02819,"lc_30_fraction":0.90681,"PM25_2020":39.392879486084,"annual_mean_temp":28.9388275146484,"annual_precipitation":394.128509521484,"AEZ_NAME":"Tropic - warm / semiarid","UGS_fraction":0.935},"geometry":{"type":"Point","coordinates":[20.75166197536749,13.658210952249935]}},{"type":"Feature","properties":{"agglosID":60.0,"agglosName":"Abraka","ISO3":"NGA","Pop2020":78190.0,"lc_10_fraction":0.14644,"lc_20_fraction":0.0,"lc_30_fraction":0.299,"PM25_2020":51.9927711486816,"annual_mean_temp":26.5998039245605,"annual_precipitation":2319.6904296875,"AEZ_NAME":"Tropic - warm / subhumid","UGS_fraction":0.44543999999999997},"geometry":{"type":"Point","coordinates":[6.106192978432548,5.78870964263627]}},{"type":"Feature","properties":{"agglosID":61.0,"agglosName":"Abshadat","ISO3":"EGY","Pop2020":77055.0,"lc_10_fraction":0.15006,"lc_20_fraction":0.00227,"lc_30_fraction":0.00039,"PM25_2020":43.801570892334,"annual_mean_temp":21.8929672241211,"annual_precipitation":3.0,"AEZ_NAME":"Subtropic - warm / arid","UGS_fraction":0.15272},"geometry":{"type":"Point","coordinates":[30.729439484151408,27.84733201268215]}},{"type":"Feature","properties":{"agglosID":62.0,"agglosName":"Abshan","ISO3":"EGY","Pop2020":27569.0,"lc_10_fraction":0.02075,"lc_20_fraction":0.0023,"lc_30_fraction":0.00166,"PM25_2020":30.9199314117432,"annual_mean_temp":20.3847904205322,"annual_precipitation":76.5090866088867,"AEZ_NAME":"Subtropic - warm / arid","UGS_fraction":0.024710000000000004},"geometry":{"type":"Point","coordinates":[31.164680493307868,31.173190279531853]}},{"type":"Feature","properties":{"agglosID":65.0,"agglosName":"Absug","ISO3":"EGY","Pop2020":15599.0,"lc_10_fraction":0.09983,"lc_20_fraction":0.00482,"lc_30_fraction":0.00078,"PM25_2020":43.8531646728516,"annual_mean_temp":21.5194358825684,"annual_precipitation":5.0,"AEZ_NAME":"Subtropic - warm / arid","UGS_fraction":0.10543000000000001},"geometry":{"type":"Point","coordinates":[30.889251413410248,28.853810667248504]}},{"type":"Feature","properties":{"agglosID":66.0,"agglosName":"Abu al-abbas","ISO3":"EGY","Pop2020":24934.0,"lc_10_fraction":0.1305,"lc_20_fraction":0.00677,"lc_30_fraction":0.00007,"PM25_2020":43.9240188598633,"annual_mean_temp":21.5191440582275,"annual_precipitation":5.0,"AEZ_NAME":"Subtropic - warm / arid","UGS_fraction":0.13734},"geometry":{"type":"Point","coordinates":[30.74932683881647,28.499506006265006]}},{"type":"Feature","properties":{"agglosID":70.0,"agglosName":"Abu al-khawi","ISO3":"EGY","Pop2020":14330.0,"lc_10_fraction":0.04046,"lc_20_fraction":0.00169,"lc_30_fraction":0.00038,"PM25_2020":35.917797088623,"annual_mean_temp":20.3080654144287,"annual_precipitation":34.8610649108887,"AEZ_NAME":"Subtropic - warm / arid","UGS_fraction":0.04253},"geometry":{"type":"Point","coordinates":[30.806725900195777,30.593048388364016]}},{"type":"Feature","properties":{"agglosID":71.0,"agglosName":"Abu al-matamir","ISO3":"EGY","Pop2020":133090.0,"lc_10_fraction":0.02111,"lc_20_fraction":0.00806,"lc_30_fraction":0.00295,"PM25_2020":33.7742538452148,"annual_mean_temp":22.8009719848633,"annual_precipitation":101.284194946289,"AEZ_NAME":"Subtropic - warm / arid","UGS_fraction":0.03212},"geometry":{"type":"Point","coordinates":[30.1588339490237,30.918045976807293]}},{"type":"Feature","properties":{"agglosID":74.0,"agglosName":"Abu al-shiqaf","ISO3":"EGY","Pop2020":20432.0,"lc_10_fraction":0.06371,"lc_20_fraction":0.01158,"lc_30_fraction":0.00232,"PM25_2020":33.0029830932617,"annual_mean_temp":21.6166706085205,"annual_precipitation":83.1896057128906,"AEZ_NAME":"Subtropic - warm / arid","UGS_fraction":0.07761},"geometry":{"type":"Point","coordinates":[30.41256690542787,30.8854988606465]}},{"type":"Feature","properties":{"agglosID":75.0,"agglosName":"Abu al-shuquq","ISO3":"EGY","Pop2020":17887.0,"lc_10_fraction":0.01889,"lc_20_fraction":0.003,"lc_30_fraction":0.00244,"PM25_2020":38.871166229248,"annual_mean_temp":20.2170391082764,"annual_precipitation":47.3083190917969,"AEZ_NAME":"Subtropic - warm / arid","UGS_fraction":0.02433},"geometry":{"type":"Point","coordinates":[31.600894311636844,30.827044611143355]}},{"type":"Feature","properties":{"agglosID":79.0,"agglosName":"Abu danqash","ISO3":"EGY","Pop2020":16694.0,"lc_10_fraction":0.04291,"lc_20_fraction":0.04029,"lc_30_fraction":0.00171,"PM25_2020":42.4290885925293,"annual_mean_temp":21.5033226013184,"annual_precipitation":8.01230525970459,"AEZ_NAME":"Subtropic - warm / arid","UGS_fraction":0.08491},"geometry":{"type":"Point","coordinates":[30.67883504207951,29.291884631421948]}},{"type":"Feature","properties":{"agglosID":80.0,"agglosName":"Abu darraz","ISO3":"EGY","Pop2020":12128.0,"lc_10_fraction":0.04611,"lc_20_fraction":0.00249,"lc_30_fraction":0.00219,"PM25_2020":28.1277942657471,"annual_mean_temp":19.7562465667725,"annual_precipitation":121.241668701172,"AEZ_NAME":"Subtropic - warm / arid","UGS_fraction":0.050789999999999998},"geometry":{"type":"Point","coordinates":[30.620654596472997,31.22303630414477]}},{"type":"Feature","properties":{"agglosID":81.0,"agglosName":"Abu dashisha","ISO3":"EGY","Pop2020":27851.0,"lc_10_fraction":0.00762,"lc_20_fraction":0.00116,"lc_30_fraction":0.00833,"PM25_2020":28.3983879089355,"annual_mean_temp":20.4582347869873,"annual_precipitation":89.959114074707,"AEZ_NAME":"Subtropic - warm / arid","UGS_fraction":0.01711},"geometry":{"type":"Point","coordinates":[31.351821875881364,31.303187371598577]}},{"type":"Feature","properties":{"agglosID":82.0,"agglosName":"Abu dawn","ISO3":"SDN","Pop2020":12532.0,"lc_10_fraction":0.05623,"lc_20_fraction":0.02508,"lc_30_fraction":0.01261,"PM25_2020":40.6062164306641,"annual_mean_temp":28.7383422851562,"annual_precipitation":34.5709457397461,"AEZ_NAME":"Tropic - warm / arid","UGS_fraction":0.09392},"geometry":{"type":"Point","coordinates":[31.11798111026935,17.984011954394608]}},{"type":"Feature","properties":{"agglosID":83.0,"agglosName":"Abu dawud al-inab","ISO3":"EGY","Pop2020":16169.0,"lc_10_fraction":0.01068,"lc_20_fraction":0.00366,"lc_30_fraction":0.00013,"PM25_2020":37.905948638916,"annual_mean_temp":20.3662624359131,"annual_precipitation":45.0,"AEZ_NAME":"Subtropic - warm / arid","UGS_fraction":0.01447},"geometry":{"type":"Point","coordinates":[31.36620120703992,30.86884082636609]}},{"type":"Feature","properties":{"agglosID":84.0,"agglosName":"Abu dawud al-sabbakh","ISO3":"EGY","Pop2020":24163.0,"lc_10_fraction":0.00583,"lc_20_fraction":0.00157,"lc_30_fraction":0.00099,"PM25_2020":38.4843215942383,"annual_mean_temp":20.2685317993164,"annual_precipitation":50.8790054321289,"AEZ_NAME":"Subtropic - warm / arid","UGS_fraction":0.00839},"geometry":{"type":"Point","coordinates":[31.57616681819654,30.91437889671393]}},{"type":"Feature","properties":{"agglosID":85.0,"agglosName":"Abu durra","ISO3":"EGY","Pop2020":15983.0,"lc_10_fraction":0.0246,"lc_20_fraction":0.00549,"lc_30_fraction":0.00102,"PM25_2020":33.1760673522949,"annual_mean_temp":20.174560546875,"annual_precipitation":83.4255065917969,"AEZ_NAME":"Subtropic - warm / arid","UGS_fraction":0.03111},"geometry":{"type":"Point","coordinates":[30.620914189858579,31.009828656785964]}},{"type":"Feature","properties":{"agglosID":86.0,"agglosName":"Abu galal","ISO3":"EGY","Pop2020":25424.0,"lc_10_fraction":0.00867,"lc_20_fraction":0.00105,"lc_30_fraction":0.01116,"PM25_2020":30.3777236938477,"annual_mean_temp":20.1084079742432,"annual_precipitation":79.2911987304688,"AEZ_NAME":"Subtropic - warm / arid","UGS_fraction":0.020880000000000004},"geometry":{"type":"Point","coordinates":[31.5659805443036,31.2724785058317]}},{"type":"Feature","properties":{"agglosID":87.0,"agglosName":"Abu gandir","ISO3":"EGY","Pop2020":39016.0,"lc_10_fraction":0.08383,"lc_20_fraction":0.00737,"lc_30_fraction":0.00018,"PM25_2020":42.4577331542969,"annual_mean_temp":21.5432968139648,"annual_precipitation":8.00389003753662,"AEZ_NAME":"Subtropic - warm / arid","UGS_fraction":0.09138},"geometry":{"type":"Point","coordinates":[30.665787968110594,29.241017998566904]}},{"type":"Feature","properties":{"agglosID":90.0,"agglosName":"Abu guta","ISO3":"SDN","Pop2020":15312.0,"lc_10_fraction":0.00233,"lc_20_fraction":0.00014,"lc_30_fraction":0.14665,"PM25_2020":37.9839477539062,"annual_mean_temp":28.7669906616211,"annual_precipitation":182.191314697266,"AEZ_NAME":"Tropic - warm / arid","UGS_fraction":0.14912},"geometry":{"type":"Point","coordinates":[32.73269999576073,14.931374950803637]}},{"type":"Feature","properties":{"agglosID":91.0,"agglosName":"Abu hamad","ISO3":"SDN","Pop2020":13837.0,"lc_10_fraction":0.00594,"lc_20_fraction":0.00027,"lc_30_fraction":0.00341,"PM25_2020":47.4812889099121,"annual_mean_temp":29.0436840057373,"annual_precipitation":16.1614437103271,"AEZ_NAME":"Tropic - warm / arid","UGS_fraction":0.00962},"geometry":{"type":"Point","coordinates":[33.32455043603058,19.53723541137118]}},{"type":"Feature","properties":{"agglosID":93.0,"agglosName":"Abu hijar","ISO3":"SDN","Pop2020":14375.0,"lc_10_fraction":0.00371,"lc_20_fraction":0.0,"lc_30_fraction":0.60842,"PM25_2020":36.100715637207,"annual_mean_temp":28.5681133270264,"annual_precipitation":536.642028808594,"AEZ_NAME":"Tropic - warm / semiarid","UGS_fraction":0.61213},"geometry":{"type":"Point","coordinates":[33.987710888330777,12.85697504885992]}},{"type":"Feature","properties":{"agglosID":96.0,"agglosName":"Abu jabra","ISO3":"SDN","Pop2020":17472.0,"lc_10_fraction":0.00097,"lc_20_fraction":0.00626,"lc_30_fraction":0.85151,"PM25_2020":29.841854095459,"annual_mean_temp":27.7326812744141,"annual_precipitation":499.687713623047,"AEZ_NAME":"Tropic - warm / semiarid","UGS_fraction":0.85874},"geometry":{"type":"Point","coordinates":[26.740302187743749,11.065752639055479]}},{"type":"Feature","properties":{"agglosID":97.0,"agglosName":"Abu jubayha","ISO3":"SDN","Pop2020":61276.0,"lc_10_fraction":0.00428,"lc_20_fraction":0.00372,"lc_30_fraction":0.59372,"PM25_2020":24.2796173095703,"annual_mean_temp":27.6030979156494,"annual_precipitation":647.666259765625,"AEZ_NAME":"Tropic - warm / semiarid","UGS_fraction":0.60172},"geometry":{"type":"Point","coordinates":[31.23065764289902,11.472453229211017]}},{"type":"Feature","properties":{"agglosID":100.0,"agglosName":"Abu karinka","ISO3":"SDN","Pop2020":23100.0,"lc_10_fraction":0.00153,"lc_20_fraction":0.03545,"lc_30_fraction":0.73426,"PM25_2020":32.7163925170898,"annual_mean_temp":27.3601741790771,"annual_precipitation":417.991821289062,"AEZ_NAME":"Tropic - warm / semiarid","UGS_fraction":0.77124},"geometry":{"type":"Point","coordinates":[26.54532631760584,11.58765690512892]}},{"type":"Feature","properties":{"agglosID":101.0,"agglosName":"Abu karshulh khawr al-taina","ISO3":"SDN","Pop2020":14760.0,"lc_10_fraction":0.02644,"lc_20_fraction":0.03119,"lc_30_fraction":0.38425,"PM25_2020":30.0991611480713,"annual_mean_temp":27.3344917297363,"annual_precipitation":521.010314941406,"AEZ_NAME":"Tropic - warm / semiarid","UGS_fraction":0.44188},"geometry":{"type":"Point","coordinates":[30.790000232062164,12.150045832831376]}},{"type":"Feature","properties":{"agglosID":103.0,"agglosName":"Abu kuke","ISO3":"ETH","Pop2020":15452.0,"lc_10_fraction":0.13034,"lc_20_fraction":0.00594,"lc_30_fraction":0.02373,"PM25_2020":25.1166591644287,"annual_mean_temp":15.3442535400391,"annual_precipitation":1109.92553710938,"AEZ_NAME":"Tropic - cool / subhumid","UGS_fraction":0.16001},"geometry":{"type":"Point","coordinates":[38.34331792820038,9.911727512104772]}},{"type":"Feature","properties":{"agglosID":104.0,"agglosName":"Urin","ISO3":"EGY","Pop2020":59445.0,"lc_10_fraction":0.04959,"lc_20_fraction":0.0081,"lc_30_fraction":0.00074,"PM25_2020":34.0171508789062,"annual_mean_temp":20.0256481170654,"annual_precipitation":68.6443939208984,"AEZ_NAME":"Subtropic - warm / arid","UGS_fraction":0.05843},"geometry":{"type":"Point","coordinates":[30.6953433111995,30.95209630319987]}},{"type":"Feature","properties":{"agglosID":105.0,"agglosName":"Abu manna bahri","ISO3":"EGY","Pop2020":85530.0,"lc_10_fraction":0.13626,"lc_20_fraction":0.01989,"lc_30_fraction":0.00194,"PM25_2020":51.0545349121094,"annual_mean_temp":23.9210929870605,"annual_precipitation":1.0,"AEZ_NAME":"Subtropic - warm / arid","UGS_fraction":0.15808999999999999},"geometry":{"type":"Point","coordinates":[32.388173295263857,26.15766924756537]}},{"type":"Feature","properties":{"agglosID":107.0,"agglosName":"Abu manna sharq","ISO3":"EGY","Pop2020":18013.0,"lc_10_fraction":0.06787,"lc_20_fraction":0.012070000000000001,"lc_30_fraction":0.00471,"PM25_2020":50.6769523620605,"annual_mean_temp":23.9920978546143,"annual_precipitation":1.0,"AEZ_NAME":"Subtropic - warm / arid","UGS_fraction":0.08465},"geometry":{"type":"Point","coordinates":[32.471346086663739,26.184282391721387]}},{"type":"Feature","properties":{"agglosID":108.0,"agglosName":"Abu matariq","ISO3":"SDN","Pop2020":16050.0,"lc_10_fraction":0.00023,"lc_20_fraction":0.00086,"lc_30_fraction":0.63889,"PM25_2020":32.4413948059082,"annual_mean_temp":27.3856410980225,"annual_precipitation":519.375305175781,"AEZ_NAME":"Tropic - warm / semiarid","UGS_fraction":0.63998},"geometry":{"type":"Point","coordinates":[26.205417623543178,10.984593515141802]}},{"type":"Feature","properties":{"agglosID":121.0,"agglosName":"Abu sir al-malaq","ISO3":"EGY","Pop2020":36437.0,"lc_10_fraction":0.1342,"lc_20_fraction":0.00859,"lc_30_fraction":0.01307,"PM25_2020":48.3244552612305,"annual_mean_temp":21.7904109954834,"annual_precipitation":10.6953945159912,"AEZ_NAME":"Subtropic - warm / arid","UGS_fraction":0.15586000000000004},"geometry":{"type":"Point","coordinates":[31.090593198723604,29.25870984337221]}},{"type":"Feature","properties":{"agglosID":122.0,"agglosName":"Abu sir bana","ISO3":"EGY","Pop2020":69217.0,"lc_10_fraction":0.04136,"lc_20_fraction":0.0028,"lc_30_fraction":0.00202,"PM25_2020":37.6200218200684,"annual_mean_temp":20.2414932250977,"annual_precipitation":47.9096870422363,"AEZ_NAME":"Subtropic - warm / arid","UGS_fraction":0.04618},"geometry":{"type":"Point","coordinates":[31.23174114885327,30.89436938669287]}},{"type":"Feature","properties":{"agglosID":125.0,"agglosName":"Abu ushar","ISO3":"SDN","Pop2020":14210.0,"lc_10_fraction":0.01336,"lc_20_fraction":0.00009,"lc_30_fraction":0.06751,"PM25_2020":38.3255767822266,"annual_mean_temp":28.3918838500977,"annual_precipitation":196.825881958008,"AEZ_NAME":"Tropic - warm / arid","UGS_fraction":0.08096},"geometry":{"type":"Point","coordinates":[33.2081641819766,14.923444335956816]}},{"type":"Feature","properties":{"agglosID":126.0,"agglosName":"Abu zabad","ISO3":"SDN","Pop2020":30102.0,"lc_10_fraction":0.00037,"lc_20_fraction":0.004,"lc_30_fraction":0.4757,"PM25_2020":29.3669471740723,"annual_mean_temp":26.9000244140625,"annual_precipitation":451.438293457031,"AEZ_NAME":"Tropic - warm / semiarid","UGS_fraction":0.48007},"geometry":{"type":"Point","coordinates":[29.231266748919077,12.354114055149]}},{"type":"Feature","properties":{"agglosID":130.0,"agglosName":"Abud","ISO3":"SDN","Pop2020":10179.0,"lc_10_fraction":0.0,"lc_20_fraction":0.00509,"lc_30_fraction":0.5431,"PM25_2020":37.6391143798828,"annual_mean_temp":28.7695083618164,"annual_precipitation":283.077728271484,"AEZ_NAME":"Tropic - warm / arid","UGS_fraction":0.5481900000000001},"geometry":{"type":"Point","coordinates":[33.13246751136409,14.226310672285557]}},{"type":"Feature","properties":{"agglosID":132.0,"agglosName":"Abuesi","ISO3":"GHA","Pop2020":27006.0,"lc_10_fraction":0.20304,"lc_20_fraction":0.00004,"lc_30_fraction":0.28093,"PM25_2020":22.5612030029297,"annual_mean_temp":26.4091014862061,"annual_precipitation":1467.01794433594,"AEZ_NAME":null,"UGS_fraction":0.48401000000000007},"geometry":{"type":"Point","coordinates":[-1.649104163059182,4.98118801909657]}},{"type":"Feature","properties":{"agglosID":133.0,"agglosName":"Abuja","ISO3":"NGA","Pop2020":3265077.0,"lc_10_fraction":0.12854,"lc_20_fraction":0.02546,"lc_30_fraction":0.10872,"PM25_2020":65.6976699829102,"annual_mean_temp":26.5267372131348,"annual_precipitation":1353.0830078125,"AEZ_NAME":"Tropic - warm / subhumid","UGS_fraction":0.26272},"geometry":{"type":"Point","coordinates":[7.446020416396458,9.062758289692394]}},{"type":"Feature","properties":{"agglosID":134.0,"agglosName":"Abuja military areas","ISO3":"NGA","Pop2020":17724.0,"lc_10_fraction":0.12536,"lc_20_fraction":0.02497,"lc_30_fraction":0.08018,"PM25_2020":58.3142242431641,"annual_mean_temp":27.1304054260254,"annual_precipitation":1294.4169921875,"AEZ_NAME":"Tropic - warm / subhumid","UGS_fraction":0.23051},"geometry":{"type":"Point","coordinates":[7.260390357647466,8.968095772631609]}},{"type":"Feature","properties":{"agglosID":135.0,"agglosName":"Abukur","ISO3":"NGA","Pop2020":17148.0,"lc_10_fraction":0.00126,"lc_20_fraction":0.00015,"lc_30_fraction":0.05585,"PM25_2020":96.5900650024414,"annual_mean_temp":26.0088481903076,"annual_precipitation":576.036865234375,"AEZ_NAME":"Tropic - warm / semiarid","UGS_fraction":0.05726},"geometry":{"type":"Point","coordinates":[7.66195244290356,12.872902493605708]}},{"type":"Feature","properties":{"agglosID":137.0,"agglosName":"Bakongo (abumombazi)","ISO3":"COD","Pop2020":26600.0,"lc_10_fraction":0.39563,"lc_20_fraction":0.00001,"lc_30_fraction":0.15599,"PM25_2020":33.1258201599121,"annual_mean_temp":24.9418087005615,"annual_precipitation":1663.82507324219,"AEZ_NAME":"Tropic - warm / humid","UGS_fraction":0.55163},"geometry":{"type":"Point","coordinates":[22.153169098012876,3.683004673835131]}},{"type":"Feature","properties":{"agglosID":138.0,"agglosName":"Abuochicie","ISO3":"NGA","Pop2020":31591.0,"lc_10_fraction":0.62057,"lc_20_fraction":0.01696,"lc_30_fraction":0.0373,"PM25_2020":45.9607963562012,"annual_mean_temp":26.7236061096191,"annual_precipitation":1788.27770996094,"AEZ_NAME":"Tropic - warm / subhumid","UGS_fraction":0.6748299999999999},"geometry":{"type":"Point","coordinates":[8.976993241346954,6.753449890618954]}},{"type":"Feature","properties":{"agglosID":139.0,"agglosName":"Abura dunkwa","ISO3":"GHA","Pop2020":11719.0,"lc_10_fraction":0.40262,"lc_20_fraction":0.02463,"lc_30_fraction":0.1156,"PM25_2020":24.2151107788086,"annual_mean_temp":26.3716926574707,"annual_precipitation":1341.46533203125,"AEZ_NAME":"Tropic - warm / subhumid","UGS_fraction":0.5428499999999999},"geometry":{"type":"Point","coordinates":[-1.170762140057702,5.339395896575886]}},{"type":"Feature","properties":{"agglosID":141.0,"agglosName":"Abwan","ISO3":"EGY","Pop2020":21613.0,"lc_10_fraction":0.04126,"lc_20_fraction":0.00063,"lc_30_fraction":0.00099,"PM25_2020":45.8622512817383,"annual_mean_temp":21.4987392425537,"annual_precipitation":5.0,"AEZ_NAME":"Subtropic - warm / arid","UGS_fraction":0.042879999999999997},"geometry":{"type":"Point","coordinates":[30.72655222181846,28.399480861596225]}},{"type":"Feature","properties":{"agglosID":143.0,"agglosName":"Abyar","ISO3":"EGY","Pop2020":80431.0,"lc_10_fraction":0.01077,"lc_20_fraction":0.0019,"lc_30_fraction":0.00057,"PM25_2020":36.3551406860352,"annual_mean_temp":19.6023406982422,"annual_precipitation":51.3786468505859,"AEZ_NAME":"Subtropic - warm / arid","UGS_fraction":0.01324},"geometry":{"type":"Point","coordinates":[30.864258327348407,30.838398601626353]}},{"type":"Feature","properties":{"agglosID":144.0,"agglosName":"Abyuha","ISO3":"EGY","Pop2020":13179.0,"lc_10_fraction":0.07247,"lc_20_fraction":0.00249,"lc_30_fraction":0.0,"PM25_2020":45.5473785400391,"annual_mean_temp":21.8107891082764,"annual_precipitation":3.00000023841858,"AEZ_NAME":"Subtropic - warm / arid","UGS_fraction":0.07496000000000001},"geometry":{"type":"Point","coordinates":[30.82928475710454,27.966296441900736]}},{"type":"Feature","properties":{"agglosID":145.0,"agglosName":"Accra","ISO3":"GHA","Pop2020":4686394.0,"lc_10_fraction":0.0773,"lc_20_fraction":0.053,"lc_30_fraction":0.24113,"PM25_2020":25.3309898376465,"annual_mean_temp":26.9583263397217,"annual_precipitation":987.461853027344,"AEZ_NAME":"Tropic - warm / subhumid","UGS_fraction":0.37143000000000006},"geometry":{"type":"Point","coordinates":[-0.078460286417326,5.746204203219722]}},{"type":"Feature","properties":{"agglosID":146.0,"agglosName":"Achaacha","ISO3":"DZA","Pop2020":15878.0,"lc_10_fraction":0.02555,"lc_20_fraction":0.0124,"lc_30_fraction":0.3324,"PM25_2020":10.9790496826172,"annual_mean_temp":17.6218757629395,"annual_precipitation":442.327789306641,"AEZ_NAME":"Subtropic - warm / semiarid","UGS_fraction":0.37034999999999998},"geometry":{"type":"Point","coordinates":[0.631818470090574,36.24502122571674]}},{"type":"Feature","properties":{"agglosID":147.0,"agglosName":"Achalla","ISO3":"NGA","Pop2020":13919.0,"lc_10_fraction":0.49411,"lc_20_fraction":0.00818,"lc_30_fraction":0.05964,"PM25_2020":37.2798271179199,"annual_mean_temp":26.9990310668945,"annual_precipitation":1657.1962890625,"AEZ_NAME":"Tropic - warm / subhumid","UGS_fraction":0.56193},"geometry":{"type":"Point","coordinates":[6.988414181502632,6.337232937820528]}},{"type":"Feature","properties":{"agglosID":148.0,"agglosName":"Achi 1","ISO3":"NGA","Pop2020":53260.0,"lc_10_fraction":0.75021,"lc_20_fraction":0.00493,"lc_30_fraction":0.0686,"PM25_2020":25.3993492126465,"annual_mean_temp":25.9746322631836,"annual_precipitation":1891.50183105469,"AEZ_NAME":"Tropic - warm / subhumid","UGS_fraction":0.82374},"geometry":{"type":"Point","coordinates":[7.369037135496134,6.142538829008078]}},{"type":"Feature","properties":{"agglosID":149.0,"agglosName":"Achi 2","ISO3":"NGA","Pop2020":12338.0,"lc_10_fraction":0.00589,"lc_20_fraction":0.00956,"lc_30_fraction":0.00686,"PM25_2020":71.8430404663086,"annual_mean_temp":25.6476535797119,"annual_precipitation":1257.37670898438,"AEZ_NAME":"Tropic - warm / subhumid","UGS_fraction":0.022310000000000005},"geometry":{"type":"Point","coordinates":[7.384364402940006,10.053185055610199]}},{"type":"Feature","properties":{"agglosID":150.0,"agglosName":"Kashwal","ISO3":"SSD","Pop2020":69000.0,"lc_10_fraction":0.01234,"lc_20_fraction":0.07459,"lc_30_fraction":0.90429,"PM25_2020":22.0631065368652,"annual_mean_temp":27.4965801239014,"annual_precipitation":986.158142089844,"AEZ_NAME":"Tropic - warm / subhumid","UGS_fraction":0.99122},"geometry":{"type":"Point","coordinates":[29.242367461960226,7.007342272947688]}},{"type":"Feature","properties":{"agglosID":152.0,"agglosName":"Ada foah","ISO3":"GHA","Pop2020":13237.0,"lc_10_fraction":0.03634,"lc_20_fraction":0.00029,"lc_30_fraction":0.19406,"PM25_2020":28.4047546386719,"annual_mean_temp":27.3204040527344,"annual_precipitation":939.827270507812,"AEZ_NAME":"Tropic - warm / semiarid","UGS_fraction":0.23069},"geometry":{"type":"Point","coordinates":[0.615338624305944,5.780047480954918]}},{"type":"Feature","properties":{"agglosID":153.0,"agglosName":"Adaba","ISO3":"ETH","Pop2020":24745.0,"lc_10_fraction":0.07802,"lc_20_fraction":0.0185,"lc_30_fraction":0.14815,"PM25_2020":22.1760501861572,"annual_mean_temp":15.0154457092285,"annual_precipitation":873.97705078125,"AEZ_NAME":"Tropic - cool / subhumid","UGS_fraction":0.24467},"geometry":{"type":"Point","coordinates":[39.38974480794685,7.012359700905848]}},{"type":"Feature","properties":{"agglosID":154.0,"agglosName":"Adakplame","ISO3":"BEN","Pop2020":11407.0,"lc_10_fraction":0.14395,"lc_20_fraction":0.17456,"lc_30_fraction":0.1671,"PM25_2020":32.9898681640625,"annual_mean_temp":26.985315322876,"annual_precipitation":1142.32067871094,"AEZ_NAME":"Tropic - warm / subhumid","UGS_fraction":0.48561},"geometry":{"type":"Point","coordinates":[2.558552472435306,7.45479808915123]}},{"type":"Feature","properties":{"agglosID":155.0,"agglosName":"Adama","ISO3":"ETH","Pop2020":454764.0,"lc_10_fraction":0.0247,"lc_20_fraction":0.08657,"lc_30_fraction":0.09493,"PM25_2020":28.0259437561035,"annual_mean_temp":19.2737693786621,"annual_precipitation":819.120239257812,"AEZ_NAME":"Tropic - cool / semiarid","UGS_fraction":0.2062},"geometry":{"type":"Point","coordinates":[39.26859140873263,8.51489025113645]}},{"type":"Feature","properties":{"agglosID":156.0,"agglosName":"Adami tulu","ISO3":"ETH","Pop2020":28384.0,"lc_10_fraction":0.001,"lc_20_fraction":0.12458,"lc_30_fraction":0.14422,"PM25_2020":24.2609195709229,"annual_mean_temp":19.6547050476074,"annual_precipitation":802.623718261719,"AEZ_NAME":"Tropic - cool / subhumid","UGS_fraction":0.2698},"geometry":{"type":"Point","coordinates":[38.70396578558124,7.855159163304724]}},{"type":"Feature","properties":{"agglosID":157.0,"agglosName":"Adayla","ISO3":"SDN","Pop2020":47158.0,"lc_10_fraction":0.00665,"lc_20_fraction":0.0022,"lc_30_fraction":0.71238,"PM25_2020":31.8809127807617,"annual_mean_temp":27.9667587280273,"annual_precipitation":458.310424804688,"AEZ_NAME":"Tropic - warm / semiarid","UGS_fraction":0.72123},"geometry":{"type":"Point","coordinates":[27.003524337786325,11.337129649147208]}},{"type":"Feature","properties":{"agglosID":158.0,"agglosName":"Adda daoueni","ISO3":"COM","Pop2020":17302.0,"lc_10_fraction":0.88493,"lc_20_fraction":0.0,"lc_30_fraction":0.00661,"PM25_2020":10.1181440353394,"annual_mean_temp":22.0655155181885,"annual_precipitation":1861.91918945312,"AEZ_NAME":"Tropic - warm / humid","UGS_fraction":0.89154},"geometry":{"type":"Point","coordinates":[44.49934536314359,-12.299261198288562]}},{"type":"Feature","properties":{"agglosID":159.0,"agglosName":"Addis ababa","ISO3":"ETH","Pop2020":4273817.0,"lc_10_fraction":0.06342,"lc_20_fraction":0.04422,"lc_30_fraction":0.08691,"PM25_2020":30.703634262085,"annual_mean_temp":16.3132877349854,"annual_precipitation":1018.1103515625,"AEZ_NAME":"Tropic - cool / subhumid","UGS_fraction":0.19455},"geometry":{"type":"Point","coordinates":[38.77078470259776,8.884383414555938]}},{"type":"Feature","properties":{"agglosID":160.0,"agglosName":"Addis alem 1","ISO3":"ETH","Pop2020":14172.0,"lc_10_fraction":0.09958,"lc_20_fraction":0.01898,"lc_30_fraction":0.06448,"PM25_2020":28.4906234741211,"annual_mean_temp":16.3599147796631,"annual_precipitation":969.656188964844,"AEZ_NAME":"Tropic - cool / subhumid","UGS_fraction":0.18303999999999999},"geometry":{"type":"Point","coordinates":[38.39176229701707,9.044311497303824]}},{"type":"Feature","properties":{"agglosID":161.0,"agglosName":"Addis alem 2","ISO3":"ETH","Pop2020":13175.0,"lc_10_fraction":0.05489,"lc_20_fraction":0.03418,"lc_30_fraction":0.00516,"PM25_2020":20.1074333190918,"annual_mean_temp":17.3257122039795,"annual_precipitation":1579.40637207031,"AEZ_NAME":"Tropic - cool / subhumid","UGS_fraction":0.09423000000000001},"geometry":{"type":"Point","coordinates":[37.091244598837928,11.203361447352176]}},{"type":"Feature","properties":{"agglosID":162.0,"agglosName":"Addis kidam","ISO3":"ETH","Pop2020":32893.0,"lc_10_fraction":0.22646,"lc_20_fraction":0.06004,"lc_30_fraction":0.05481,"PM25_2020":19.2009181976318,"annual_mean_temp":15.3434085845947,"annual_precipitation":1841.724609375,"AEZ_NAME":"Tropic - cool / subhumid","UGS_fraction":0.34131},"geometry":{"type":"Point","coordinates":[36.885999212911688,11.084637650055344]}},{"type":"Feature","properties":{"agglosID":163.0,"agglosName":"Ado awaiye","ISO3":"NGA","Pop2020":10895.0,"lc_10_fraction":0.09784,"lc_20_fraction":0.09239,"lc_30_fraction":0.06404,"PM25_2020":37.1813659667969,"annual_mean_temp":26.7575626373291,"annual_precipitation":1147.13598632812,"AEZ_NAME":"Tropic - warm / subhumid","UGS_fraction":0.25427},"geometry":{"type":"Point","coordinates":[3.428258511672253,7.830308028765678]}},{"type":"Feature","properties":{"agglosID":164.0,"agglosName":"Ade","ISO3":"TCD","Pop2020":21836.0,"lc_10_fraction":0.0,"lc_20_fraction":0.00671,"lc_30_fraction":0.94634,"PM25_2020":28.9148063659668,"annual_mean_temp":26.9989566802979,"annual_precipitation":550.985900878906,"AEZ_NAME":"Tropic - warm / semiarid","UGS_fraction":0.95305},"geometry":{"type":"Point","coordinates":[21.879624653055289,12.67915776374319]}},{"type":"Feature","properties":{"agglosID":165.0,"agglosName":"Skhirate","ISO3":"MAR","Pop2020":85361.0,"lc_10_fraction":0.06678,"lc_20_fraction":0.02028,"lc_30_fraction":0.27192,"PM25_2020":17.2151069641113,"annual_mean_temp":17.3157749176025,"annual_precipitation":462.02001953125,"AEZ_NAME":"Subtropic - warm / subhumid","UGS_fraction":0.35897999999999999},"geometry":{"type":"Point","coordinates":[-7.049038891880708,33.8382710697819]}},{"type":"Feature","properties":{"agglosID":166.0,"agglosName":"Adebaye","ISO3":"ETH","Pop2020":15221.0,"lc_10_fraction":0.00515,"lc_20_fraction":0.00278,"lc_30_fraction":0.75013,"PM25_2020":31.1582546234131,"annual_mean_temp":28.3463230133057,"annual_precipitation":624.296630859375,"AEZ_NAME":"Tropic - warm / semiarid","UGS_fraction":0.75806},"geometry":{"type":"Point","coordinates":[36.759061810390658,14.200698894133226]}},{"type":"Feature","properties":{"agglosID":168.0,"agglosName":"Adeiso","ISO3":"GHA","Pop2020":17656.0,"lc_10_fraction":0.35464,"lc_20_fraction":0.12153,"lc_30_fraction":0.056,"PM25_2020":25.3493671417236,"annual_mean_temp":26.6031265258789,"annual_precipitation":1229.39428710938,"AEZ_NAME":"Tropic - warm / subhumid","UGS_fraction":0.53217},"geometry":{"type":"Point","coordinates":[-0.483728837792134,5.794398796789222]}},{"type":"Feature","properties":{"agglosID":169.0,"agglosName":"Adele","ISO3":"ETH","Pop2020":20163.0,"lc_10_fraction":0.03423,"lc_20_fraction":0.00264,"lc_30_fraction":0.05466,"PM25_2020":25.3922882080078,"annual_mean_temp":15.4287300109863,"annual_precipitation":1190.99597167969,"AEZ_NAME":"Tropic - cool / subhumid","UGS_fraction":0.09153},"geometry":{"type":"Point","coordinates":[39.905640372504908,7.789157098169426]}},{"type":"Feature","properties":{"agglosID":172.0,"agglosName":"Adet","ISO3":"ETH","Pop2020":44183.0,"lc_10_fraction":0.1483,"lc_20_fraction":0.02004,"lc_30_fraction":0.03408,"PM25_2020":23.3961734771729,"annual_mean_temp":17.2548408508301,"annual_precipitation":1433.23413085938,"AEZ_NAME":"Tropic - cool / subhumid","UGS_fraction":0.20242},"geometry":{"type":"Point","coordinates":[37.48896484909724,11.256203747037726]}},{"type":"Feature","properties":{"agglosID":173.0,"agglosName":"Adeta","ISO3":"TGO","Pop2020":21133.0,"lc_10_fraction":0.35479,"lc_20_fraction":0.13587,"lc_30_fraction":0.15182,"PM25_2020":36.1571769714355,"annual_mean_temp":26.0837707519531,"annual_precipitation":1443.13916015625,"AEZ_NAME":"Tropic - warm / subhumid","UGS_fraction":0.6424799999999999},"geometry":{"type":"Point","coordinates":[0.733825311388623,7.129676200020986]}},{"type":"Feature","properties":{"agglosID":175.0,"agglosName":"Adfu","ISO3":"EGY","Pop2020":161482.0,"lc_10_fraction":0.23451,"lc_20_fraction":0.00911,"lc_30_fraction":0.00123,"PM25_2020":40.6132774353027,"annual_mean_temp":25.1753940582275,"annual_precipitation":0.0,"AEZ_NAME":"Subtropic - warm / arid","UGS_fraction":0.24485},"geometry":{"type":"Point","coordinates":[32.871707879852468,24.961052549868599]}},{"type":"Feature","properties":{"agglosID":176.0,"agglosName":"Adhi bdo (arcugi)","ISO3":"ERI","Pop2020":17099.0,"lc_10_fraction":0.00139,"lc_20_fraction":0.03088,"lc_30_fraction":0.91093,"PM25_2020":31.7913684844971,"annual_mean_temp":27.7945652008057,"annual_precipitation":463.190673828125,"AEZ_NAME":"Tropic - warm / arid","UGS_fraction":0.9432},"geometry":{"type":"Point","coordinates":[36.863043402698149,14.96214154878233]}},{"type":"Feature","properties":{"agglosID":179.0,"agglosName":"Adi gudom","ISO3":"ETH","Pop2020":28797.0,"lc_10_fraction":0.00421,"lc_20_fraction":0.0311,"lc_30_fraction":0.09256,"PM25_2020":31.3155288696289,"annual_mean_temp":19.6994781494141,"annual_precipitation":668.705017089844,"AEZ_NAME":"Tropic - cool / semiarid","UGS_fraction":0.12787},"geometry":{"type":"Point","coordinates":[39.527605235851968,13.243778430761847]}},{"type":"Feature","properties":{"agglosID":180.0,"agglosName":"Adi keyih","ISO3":"ERI","Pop2020":14220.0,"lc_10_fraction":0.00275,"lc_20_fraction":0.05878,"lc_30_fraction":0.04174,"PM25_2020":28.7918033599854,"annual_mean_temp":17.7732219696045,"annual_precipitation":527.865112304688,"AEZ_NAME":"Tropic - cool / semiarid","UGS_fraction":0.10327},"geometry":{"type":"Point","coordinates":[39.37172776910547,14.847324496680834]}},{"type":"Feature","properties":{"agglosID":181.0,"agglosName":"Adi remets","ISO3":"ETH","Pop2020":15005.0,"lc_10_fraction":0.10977,"lc_20_fraction":0.03235,"lc_30_fraction":0.08439,"PM25_2020":27.1849422454834,"annual_mean_temp":19.5426120758057,"annual_precipitation":884.514404296875,"AEZ_NAME":"Tropic - cool / semiarid","UGS_fraction":0.22651},"geometry":{"type":"Point","coordinates":[37.322581435717449,13.749322429010308]}},{"type":"Feature","properties":{"agglosID":182.0,"agglosName":"Adi tekelezan","ISO3":"ERI","Pop2020":14850.0,"lc_10_fraction":0.0,"lc_20_fraction":0.06431,"lc_30_fraction":0.12677,"PM25_2020":27.769359588623,"annual_mean_temp":18.464786529541,"annual_precipitation":487.679992675781,"AEZ_NAME":"Tropic - cool / semiarid","UGS_fraction":0.19108},"geometry":{"type":"Point","coordinates":[38.77426696229195,15.573738566714413]}},{"type":"Feature","properties":{"agglosID":183.0,"agglosName":"Adiake","ISO3":"CIV","Pop2020":22625.0,"lc_10_fraction":0.09555,"lc_20_fraction":0.01541,"lc_30_fraction":0.16742,"PM25_2020":21.0102005004883,"annual_mean_temp":26.3295116424561,"annual_precipitation":1759.86242675781,"AEZ_NAME":"Tropic - warm / humid","UGS_fraction":0.27838},"geometry":{"type":"Point","coordinates":[-3.303364644445805,5.285495983372608]}},{"type":"Feature","properties":{"agglosID":185.0,"agglosName":"Adigrat","ISO3":"ETH","Pop2020":132530.0,"lc_10_fraction":0.03357,"lc_20_fraction":0.17775,"lc_30_fraction":0.06951,"PM25_2020":29.2857265472412,"annual_mean_temp":15.972336769104,"annual_precipitation":563.260192871094,"AEZ_NAME":"Tropic - cool / semiarid","UGS_fraction":0.28083},"geometry":{"type":"Point","coordinates":[39.46295294311339,14.29878883508774]}},{"type":"Feature","properties":{"agglosID":186.0,"agglosName":"Adikpo","ISO3":"NGA","Pop2020":66103.0,"lc_10_fraction":0.45648,"lc_20_fraction":0.05521,"lc_30_fraction":0.05048,"PM25_2020":38.2560119628906,"annual_mean_temp":26.7064666748047,"annual_precipitation":1742.27783203125,"AEZ_NAME":"Tropic - warm / subhumid","UGS_fraction":0.56217},"geometry":{"type":"Point","coordinates":[9.234753328981136,6.883668999006858]}},{"type":"Feature","properties":{"agglosID":187.0,"agglosName":"Adina","ISO3":"GHA","Pop2020":13230.0,"lc_10_fraction":0.03994,"lc_20_fraction":0.0,"lc_30_fraction":0.22002,"PM25_2020":32.7408714294434,"annual_mean_temp":27.1569156646729,"annual_precipitation":904.103271484375,"AEZ_NAME":"Tropic - warm / semiarid","UGS_fraction":0.25995999999999999},"geometry":{"type":"Point","coordinates":[1.055709410069598,6.018845859273922]}},{"type":"Feature","properties":{"agglosID":188.0,"agglosName":"Adiquala","ISO3":"ERI","Pop2020":15000.0,"lc_10_fraction":0.01051,"lc_20_fraction":0.03001,"lc_30_fraction":0.05159,"PM25_2020":31.3823642730713,"annual_mean_temp":19.5195808410645,"annual_precipitation":666.710021972656,"AEZ_NAME":"Tropic - cool / semiarid","UGS_fraction":0.09211},"geometry":{"type":"Point","coordinates":[38.83314318360556,14.639275683579024]}},{"type":"Feature","properties":{"agglosID":189.0,"agglosName":"Adis zemen","ISO3":"ETH","Pop2020":27630.0,"lc_10_fraction":0.22693,"lc_20_fraction":0.0583,"lc_30_fraction":0.04116,"PM25_2020":29.2108631134033,"annual_mean_temp":19.5429916381836,"annual_precipitation":1111.73022460938,"AEZ_NAME":"Tropic - cool / subhumid","UGS_fraction":0.32638999999999998},"geometry":{"type":"Point","coordinates":[37.78038564128166,12.122950914354867]}},{"type":"Feature","properties":{"agglosID":190.0,"agglosName":"Adishohu","ISO3":"ETH","Pop2020":18023.0,"lc_10_fraction":0.05753,"lc_20_fraction":0.14082,"lc_30_fraction":0.23111,"PM25_2020":33.3437843322754,"annual_mean_temp":16.2592792510986,"annual_precipitation":746.688293457031,"AEZ_NAME":"Tropic - cool / semiarid","UGS_fraction":0.42946},"geometry":{"type":"Point","coordinates":[39.51924066048487,12.933085407875354]}},{"type":"Feature","properties":{"agglosID":191.0,"agglosName":"Adja tokpa i","ISO3":"BEN","Pop2020":39021.0,"lc_10_fraction":0.44846,"lc_20_fraction":0.07482,"lc_30_fraction":0.16997,"PM25_2020":33.5307960510254,"annual_mean_temp":26.9986972808838,"annual_precipitation":1064.36108398438,"AEZ_NAME":"Tropic - warm / subhumid","UGS_fraction":0.6932499999999999},"geometry":{"type":"Point","coordinates":[1.9835159829072,6.462162283663552]}},{"type":"Feature","properties":{"agglosID":192.0,"agglosName":"Adjaglimey","ISO3":"BEN","Pop2020":23059.0,"lc_10_fraction":0.34982,"lc_20_fraction":0.09668,"lc_30_fraction":0.15681,"PM25_2020":37.7663917541504,"annual_mean_temp":27.2190799713135,"annual_precipitation":963.458618164062,"AEZ_NAME":"Tropic - warm / subhumid","UGS_fraction":0.60331},"geometry":{"type":"Point","coordinates":[1.938514564635235,6.89488741127639]}},{"type":"Feature","properties":{"agglosID":193.0,"agglosName":"Adjaha","ISO3":"BEN","Pop2020":13998.0,"lc_10_fraction":0.24362,"lc_20_fraction":0.19692,"lc_30_fraction":0.11426,"PM25_2020":39.8151321411133,"annual_mean_temp":27.1266670227051,"annual_precipitation":1028.18530273438,"AEZ_NAME":"Tropic - warm / subhumid","UGS_fraction":0.5548000000000001},"geometry":{"type":"Point","coordinates":[2.409172245071301,8.302133663587]}},{"type":"Feature","properties":{"agglosID":194.0,"agglosName":"Adjamene","ISO3":"CIV","Pop2020":12949.0,"lc_10_fraction":0.098,"lc_20_fraction":0.00006,"lc_30_fraction":0.2961,"PM25_2020":17.25510597229,"annual_mean_temp":26.1191673278809,"annual_precipitation":1842.83581542969,"AEZ_NAME":"Tropic - warm / humid","UGS_fraction":0.39415999999999998},"geometry":{"type":"Point","coordinates":[-6.842413101277854,4.765855067461938]}},{"type":"Feature","properties":{"agglosID":195.0,"agglosName":"Adjegounle","ISO3":"BEN","Pop2020":15995.0,"lc_10_fraction":0.59283,"lc_20_fraction":0.06414,"lc_30_fraction":0.04604,"PM25_2020":36.1527938842773,"annual_mean_temp":27.1341209411621,"annual_precipitation":1183.03881835938,"AEZ_NAME":"Tropic - warm / subhumid","UGS_fraction":0.7030099999999999},"geometry":{"type":"Point","coordinates":[2.609809276181276,6.820648020270322]}},{"type":"Feature","properties":{"agglosID":196.0,"agglosName":"Adjengre","ISO3":"TGO","Pop2020":20617.0,"lc_10_fraction":0.08253,"lc_20_fraction":0.11367,"lc_30_fraction":0.19845,"PM25_2020":48.0556564331055,"annual_mean_temp":26.0692501068115,"annual_precipitation":1261.19323730469,"AEZ_NAME":"Tropic - warm / subhumid","UGS_fraction":0.39464999999999997},"geometry":{"type":"Point","coordinates":[1.017128222069005,8.661664479314478]}},{"type":"Feature","properties":{"agglosID":198.0,"agglosName":"Adjumani","ISO3":"UGA","Pop2020":52367.0,"lc_10_fraction":0.11369,"lc_20_fraction":0.18632,"lc_30_fraction":0.31985,"PM25_2020":24.7945709228516,"annual_mean_temp":25.4818592071533,"annual_precipitation":1189.228515625,"AEZ_NAME":"Tropic - warm / humid","UGS_fraction":0.6198600000000001},"geometry":{"type":"Point","coordinates":[31.7826259106614,3.372547500000041]}},{"type":"Feature","properties":{"agglosID":200.0,"agglosName":"Ado boelo","ISO3":"ETH","Pop2020":14867.0,"lc_10_fraction":0.00041,"lc_20_fraction":0.00259,"lc_30_fraction":0.09045,"PM25_2020":26.6660823822021,"annual_mean_temp":13.8420133590698,"annual_precipitation":909.316528320312,"AEZ_NAME":"Tropic - cool / subhumid","UGS_fraction":0.09345},"geometry":{"type":"Point","coordinates":[39.26512452808549,7.256544474106788]}},{"type":"Feature","properties":{"agglosID":201.0,"agglosName":"Ado ekiti","ISO3":"NGA","Pop2020":555388.0,"lc_10_fraction":0.18706,"lc_20_fraction":0.00503,"lc_30_fraction":0.20939,"PM25_2020":47.3045425415039,"annual_mean_temp":25.1294631958008,"annual_precipitation":1351.10632324219,"AEZ_NAME":"Tropic - warm / subhumid","UGS_fraction":0.40148},"geometry":{"type":"Point","coordinates":[5.204285309906624,7.624959369800556]}},{"type":"Feature","properties":{"agglosID":203.0,"agglosName":"Adoagyiri","ISO3":"GHA","Pop2020":33890.0,"lc_10_fraction":0.31388,"lc_20_fraction":0.21657,"lc_30_fraction":0.1758,"PM25_2020":26.3035564422607,"annual_mean_temp":26.68137550354,"annual_precipitation":1143.14794921875,"AEZ_NAME":"Tropic - warm / subhumid","UGS_fraction":0.70625},"geometry":{"type":"Point","coordinates":[-0.363782734530394,5.813837056625642]}},{"type":"Feature","properties":{"agglosID":205.0,"agglosName":"Adogo gari","ISO3":"NGA","Pop2020":15125.0,"lc_10_fraction":0.02757,"lc_20_fraction":0.05538,"lc_30_fraction":0.13371,"PM25_2020":58.4012641906738,"annual_mean_temp":26.9895973205566,"annual_precipitation":1128.15478515625,"AEZ_NAME":"Tropic - warm / subhumid","UGS_fraction":0.21666},"geometry":{"type":"Point","coordinates":[5.240897793631436,10.102304557790856]}},{"type":"Feature","properties":{"agglosID":206.0,"agglosName":"Iloshi","ISO3":"NGA","Pop2020":20817.0,"lc_10_fraction":0.19831,"lc_20_fraction":0.1637,"lc_30_fraction":0.16287,"PM25_2020":42.5216255187988,"annual_mean_temp":26.2076969146729,"annual_precipitation":1226.34094238281,"AEZ_NAME":"Tropic - warm / subhumid","UGS_fraction":0.52488},"geometry":{"type":"Point","coordinates":[6.471696625212446,7.515906364621716]}},{"type":"Feature","properties":{"agglosID":207.0,"agglosName":"Adoka","ISO3":"NGA","Pop2020":20418.0,"lc_10_fraction":0.1041,"lc_20_fraction":0.03834,"lc_30_fraction":0.05232,"PM25_2020":35.4692420959473,"annual_mean_temp":26.8146018981934,"annual_precipitation":1358.36083984375,"AEZ_NAME":"Tropic - warm / subhumid","UGS_fraction":0.19476000000000003},"geometry":{"type":"Point","coordinates":[7.978648767606264,7.453308372491628]}},{"type":"Feature","properties":{"agglosID":208.0,"agglosName":"Adola","ISO3":"ETH","Pop2020":36661.0,"lc_10_fraction":0.51177,"lc_20_fraction":0.01096,"lc_30_fraction":0.04422,"PM25_2020":15.8834953308105,"annual_mean_temp":19.8458862304688,"annual_precipitation":961.41943359375,"AEZ_NAME":"Tropic - cool / subhumid","UGS_fraction":0.56695},"geometry":{"type":"Point","coordinates":[38.98779093634529,5.880749675980834]}},{"type":"Feature","properties":{"agglosID":211.0,"agglosName":"Adoumri","ISO3":"CMR","Pop2020":14869.0,"lc_10_fraction":0.0233,"lc_20_fraction":0.10012,"lc_30_fraction":0.16081,"PM25_2020":63.2904510498047,"annual_mean_temp":27.8966102600098,"annual_precipitation":971.332214355469,"AEZ_NAME":"Tropic - warm / semiarid","UGS_fraction":0.28423},"geometry":{"type":"Point","coordinates":[13.771275947116049,9.250639420280557]}},{"type":"Feature","properties":{"agglosID":214.0,"agglosName":"Adrar","ISO3":"DZA","Pop2020":92307.0,"lc_10_fraction":0.11915,"lc_20_fraction":0.00496,"lc_30_fraction":0.00254,"PM25_2020":45.5574645996094,"annual_mean_temp":25.0756053924561,"annual_precipitation":12.979006767273,"AEZ_NAME":"Subtropic - warm / arid","UGS_fraction":0.12665},"geometry":{"type":"Point","coordinates":[-0.312066697853452,27.89211214509376]}},{"type":"Feature","properties":{"agglosID":215.0,"agglosName":"Adre","ISO3":"TCD","Pop2020":23412.0,"lc_10_fraction":0.00511,"lc_20_fraction":0.0148,"lc_30_fraction":0.54664,"PM25_2020":32.3055076599121,"annual_mean_temp":26.1042804718018,"annual_precipitation":449.84033203125,"AEZ_NAME":"Tropic - warm / semiarid","UGS_fraction":0.56655},"geometry":{"type":"Point","coordinates":[22.198881870982633,13.461832016267806]}},{"type":"Feature","properties":{"agglosID":216.0,"agglosName":"Aduel","ISO3":"SSD","Pop2020":42988.0,"lc_10_fraction":0.03175,"lc_20_fraction":0.0512,"lc_30_fraction":0.91428,"PM25_2020":21.4931163787842,"annual_mean_temp":27.6119556427002,"annual_precipitation":971.951171875,"AEZ_NAME":"Tropic - warm / subhumid","UGS_fraction":0.99723},"geometry":{"type":"Point","coordinates":[29.86201894942223,6.567405321071404]}},{"type":"Feature","properties":{"agglosID":217.0,"agglosName":"Adwa","ISO3":"ETH","Pop2020":96801.0,"lc_10_fraction":0.07286,"lc_20_fraction":0.16325,"lc_30_fraction":0.02636,"PM25_2020":27.0876331329346,"annual_mean_temp":19.1572780609131,"annual_precipitation":638.397094726562,"AEZ_NAME":"Tropic - cool / semiarid","UGS_fraction":0.26247},"geometry":{"type":"Point","coordinates":[38.888818088066589,14.176339156550722]}},{"type":"Feature","properties":{"agglosID":218.0,"agglosName":"Adzope","ISO3":"CIV","Pop2020":81975.0,"lc_10_fraction":0.42915,"lc_20_fraction":0.06373,"lc_30_fraction":0.06293,"PM25_2020":20.7167472839355,"annual_mean_temp":26.6306610107422,"annual_precipitation":1385.01159667969,"AEZ_NAME":"Tropic - warm / humid","UGS_fraction":0.55581},"geometry":{"type":"Point","coordinates":[-3.859222859182956,6.101591652419384]}},{"type":"Feature","properties":{"agglosID":219.0,"agglosName":"Aït ishaq","ISO3":"MAR","Pop2020":12224.0,"lc_10_fraction":0.13542,"lc_20_fraction":0.02057,"lc_30_fraction":0.23541,"PM25_2020":21.5761528015137,"annual_mean_temp":16.0962085723877,"annual_precipitation":619.4208984375,"AEZ_NAME":"Subtropic - cool / subhumid","UGS_fraction":0.3914},"geometry":{"type":"Point","coordinates":[-5.726533668946526,32.75128590442225]}},{"type":"Feature","properties":{"agglosID":220.0,"agglosName":"Af abeb","ISO3":"ERI","Pop2020":59760.0,"lc_10_fraction":0.0,"lc_20_fraction":0.00057,"lc_30_fraction":0.00551,"PM25_2020":37.1350135803223,"annual_mean_temp":23.8488216400146,"annual_precipitation":445.3466796875,"AEZ_NAME":"Tropic - warm / arid","UGS_fraction":0.00608},"geometry":{"type":"Point","coordinates":[38.68937771943824,16.18942306620538]}},{"type":"Feature","properties":{"agglosID":221.0,"agglosName":"Afagnagan","ISO3":"TGO","Pop2020":33854.0,"lc_10_fraction":0.103,"lc_20_fraction":0.1008,"lc_30_fraction":0.37476,"PM25_2020":30.1062240600586,"annual_mean_temp":26.860725402832,"annual_precipitation":1058.76416015625,"AEZ_NAME":"Tropic - warm / subhumid","UGS_fraction":0.57856},"geometry":{"type":"Point","coordinates":[1.634227216289343,6.49223824544737]}},{"type":"Feature","properties":{"agglosID":223.0,"agglosName":"Affery","ISO3":"CIV","Pop2020":35330.0,"lc_10_fraction":0.38159,"lc_20_fraction":0.06144,"lc_30_fraction":0.11274,"PM25_2020":20.7745952606201,"annual_mean_temp":26.7510147094727,"annual_precipitation":1266.42712402344,"AEZ_NAME":"Tropic - warm / humid","UGS_fraction":0.55577},"geometry":{"type":"Point","coordinates":[-3.954342093429646,6.322143475439264]}},{"type":"Feature","properties":{"agglosID":224.0,"agglosName":"Afgoye","ISO3":"SOM","Pop2020":49500.0,"lc_10_fraction":0.02805,"lc_20_fraction":0.08193,"lc_30_fraction":0.00307,"PM25_2020":11.9688949584961,"annual_mean_temp":27.0837554931641,"annual_precipitation":527.039001464844,"AEZ_NAME":"Tropic - warm / arid","UGS_fraction":0.11305},"geometry":{"type":"Point","coordinates":[45.116245528124398,2.141726803922462]}},{"type":"Feature","properties":{"agglosID":225.0,"agglosName":"Afikpo","ISO3":"NGA","Pop2020":92610.0,"lc_10_fraction":0.31217,"lc_20_fraction":0.00096,"lc_30_fraction":0.1909,"PM25_2020":35.5240325927734,"annual_mean_temp":27.1889801025391,"annual_precipitation":2038.75805664062,"AEZ_NAME":"Tropic - warm / subhumid","UGS_fraction":0.50403},"geometry":{"type":"Point","coordinates":[7.945644772832642,5.87046071667041]}},{"type":"Feature","properties":{"agglosID":227.0,"agglosName":"Aflou","ISO3":"DZA","Pop2020":164561.0,"lc_10_fraction":0.00335,"lc_20_fraction":0.01251,"lc_30_fraction":0.18275,"PM25_2020":18.3661632537842,"annual_mean_temp":13.8036117553711,"annual_precipitation":328.539978027344,"AEZ_NAME":"Subtropic - cool / semiarid","UGS_fraction":0.19861},"geometry":{"type":"Point","coordinates":[2.100393733942029,34.108016384976767]}},{"type":"Feature","properties":{"agglosID":228.0,"agglosName":"Afmadow","ISO3":"SOM","Pop2020":20300.0,"lc_10_fraction":0.00015,"lc_20_fraction":0.29806,"lc_30_fraction":0.11854,"PM25_2020":16.8884658813477,"annual_mean_temp":28.4060306549072,"annual_precipitation":530.0859375,"AEZ_NAME":"Tropic - warm / arid","UGS_fraction":0.41674999999999998},"geometry":{"type":"Point","coordinates":[42.072643367456908,0.518592427901887]}},{"type":"Feature","properties":{"agglosID":229.0,"agglosName":"Afosu","ISO3":"GHA","Pop2020":17665.0,"lc_10_fraction":0.43956,"lc_20_fraction":0.0138,"lc_30_fraction":0.08126,"PM25_2020":27.3622894287109,"annual_mean_temp":26.1859226226807,"annual_precipitation":1472.08117675781,"AEZ_NAME":"Tropic - warm / humid","UGS_fraction":0.53462},"geometry":{"type":"Point","coordinates":[-0.998136199481084,6.34938697763783]}},{"type":"Feature","properties":{"agglosID":230.0,"agglosName":"Afourar","ISO3":"MAR","Pop2020":33625.0,"lc_10_fraction":0.36283,"lc_20_fraction":0.01898,"lc_30_fraction":0.33689,"PM25_2020":21.0704822540283,"annual_mean_temp":17.3526020050049,"annual_precipitation":447.967590332031,"AEZ_NAME":"Subtropic - warm / semiarid","UGS_fraction":0.7187},"geometry":{"type":"Point","coordinates":[-6.634636506302792,32.218737490022878]}},{"type":"Feature","properties":{"agglosID":231.0,"agglosName":"Afukpilla/kominio","ISO3":"NGA","Pop2020":12938.0,"lc_10_fraction":0.20623,"lc_20_fraction":0.01898,"lc_30_fraction":0.20255,"PM25_2020":43.9029273986816,"annual_mean_temp":25.0657119750977,"annual_precipitation":1335.49340820312,"AEZ_NAME":"Tropic - warm / subhumid","UGS_fraction":0.42776000000000005},"geometry":{"type":"Point","coordinates":[6.376831782136836,7.290808540481584]}},{"type":"Feature","properties":{"agglosID":232.0,"agglosName":"Afuze","ISO3":"NGA","Pop2020":12449.0,"lc_10_fraction":0.30139,"lc_20_fraction":0.10919,"lc_30_fraction":0.10897,"PM25_2020":40.0203475952148,"annual_mean_temp":26.0699310302734,"annual_precipitation":1473.11682128906,"AEZ_NAME":"Tropic - warm / subhumid","UGS_fraction":0.51955},"geometry":{"type":"Point","coordinates":[6.041589743170654,6.974072593144838]}},{"type":"Feature","properties":{"agglosID":233.0,"agglosName":"Aga","ISO3":"EGY","Pop2020":45230.0,"lc_10_fraction":0.04405,"lc_20_fraction":0.00097,"lc_30_fraction":0.00325,"PM25_2020":36.8175163269043,"annual_mean_temp":20.4937114715576,"annual_precipitation":50.3385696411133,"AEZ_NAME":"Subtropic - warm / arid","UGS_fraction":0.04827},"geometry":{"type":"Point","coordinates":[31.292248977354654,30.945351760731208]}},{"type":"Feature","properties":{"agglosID":234.0,"agglosName":"Agadez","ISO3":"NER","Pop2020":139454.0,"lc_10_fraction":0.00596,"lc_20_fraction":0.00442,"lc_30_fraction":0.03342,"PM25_2020":36.3264923095703,"annual_mean_temp":28.4285984039307,"annual_precipitation":114.842185974121,"AEZ_NAME":"Tropic - warm / arid","UGS_fraction":0.0438},"geometry":{"type":"Point","coordinates":[7.985079478830696,16.970802420113395]}},{"type":"Feature","properties":{"agglosID":235.0,"agglosName":"Agadir","ISO3":"MAR","Pop2020":1241584.0,"lc_10_fraction":0.02267,"lc_20_fraction":0.03183,"lc_30_fraction":0.14826,"PM25_2020":23.9482078552246,"annual_mean_temp":19.2650165557861,"annual_precipitation":202.727951049805,"AEZ_NAME":"Subtropic - warm / semiarid","UGS_fraction":0.20276},"geometry":{"type":"Point","coordinates":[-9.518768170892676,30.325914429151149]}},{"type":"Feature","properties":{"agglosID":236.0,"agglosName":"Agaie","ISO3":"NGA","Pop2020":55583.0,"lc_10_fraction":0.02572,"lc_20_fraction":0.08731,"lc_30_fraction":0.10848,"PM25_2020":71.4931030273438,"annual_mean_temp":28.0044727325439,"annual_precipitation":1171.84643554688,"AEZ_NAME":"Tropic - warm / subhumid","UGS_fraction":0.22150999999999999},"geometry":{"type":"Point","coordinates":[6.32426695040141,9.005397456649492]}},{"type":"Feature","properties":{"agglosID":237.0,"agglosName":"Agareb","ISO3":"TUN","Pop2020":19872.0,"lc_10_fraction":0.00136,"lc_20_fraction":0.00862,"lc_30_fraction":0.12378,"PM25_2020":17.2981967926025,"annual_mean_temp":18.893274307251,"annual_precipitation":228.872344970703,"AEZ_NAME":"Subtropic - warm / arid","UGS_fraction":0.13376},"geometry":{"type":"Point","coordinates":[10.520510273913777,34.74476299966226]}},{"type":"Feature","properties":{"agglosID":238.0,"agglosName":"Agarfa","ISO3":"ETH","Pop2020":16547.0,"lc_10_fraction":0.06672,"lc_20_fraction":0.01598,"lc_30_fraction":0.12489,"PM25_2020":24.9044437408447,"annual_mean_temp":14.0200757980347,"annual_precipitation":1111.08972167969,"AEZ_NAME":"Tropic - cool / subhumid","UGS_fraction":0.20759},"geometry":{"type":"Point","coordinates":[39.823701678686379,7.270918008639434]}},{"type":"Feature","properties":{"agglosID":239.0,"agglosName":"Agaro","ISO3":"ETH","Pop2020":105114.0,"lc_10_fraction":0.60146,"lc_20_fraction":0.03774,"lc_30_fraction":0.05071,"PM25_2020":26.1272392272949,"annual_mean_temp":19.5378074645996,"annual_precipitation":1722.42333984375,"AEZ_NAME":"Tropic - cool / humid","UGS_fraction":0.68991},"geometry":{"type":"Point","coordinates":[36.58391630986196,7.844021536349476]}},{"type":"Feature","properties":{"agglosID":240.0,"agglosName":"Agat (k.13)","ISO3":"ETH","Pop2020":12130.0,"lc_10_fraction":0.52854,"lc_20_fraction":0.00264,"lc_30_fraction":0.01057,"PM25_2020":30.1175174713135,"annual_mean_temp":15.3637809753418,"annual_precipitation":1028.57434082031,"AEZ_NAME":"Tropic - cool / subhumid","UGS_fraction":0.54175},"geometry":{"type":"Point","coordinates":[38.479191833997848,11.61071293559336]}},{"type":"Feature","properties":{"agglosID":241.0,"agglosName":"Ago are","ISO3":"NGA","Pop2020":17685.0,"lc_10_fraction":0.24866,"lc_20_fraction":0.18372,"lc_30_fraction":0.09835,"PM25_2020":46.352855682373,"annual_mean_temp":26.2196865081787,"annual_precipitation":1129.90673828125,"AEZ_NAME":"Tropic - warm / subhumid","UGS_fraction":0.53073},"geometry":{"type":"Point","coordinates":[3.425600909262526,8.503100136328424]}},{"type":"Feature","properties":{"agglosID":247.0,"agglosName":"Agbogugu","ISO3":"NGA","Pop2020":16620.0,"lc_10_fraction":0.17794,"lc_20_fraction":0.08487,"lc_30_fraction":0.27251,"PM25_2020":15.5975770950317,"annual_mean_temp":26.535795211792,"annual_precipitation":1800.78637695312,"AEZ_NAME":"Tropic - warm / subhumid","UGS_fraction":0.53532},"geometry":{"type":"Point","coordinates":[7.4741135572752,6.252506295529386]}},{"type":"Feature","properties":{"agglosID":249.0,"agglosName":"Agbor","ISO3":"NGA","Pop2020":209170.0,"lc_10_fraction":0.34186,"lc_20_fraction":0.00398,"lc_30_fraction":0.10791,"PM25_2020":38.1496734619141,"annual_mean_temp":25.9002571105957,"annual_precipitation":1930.14733886719,"AEZ_NAME":"Tropic - warm / subhumid","UGS_fraction":0.45375},"geometry":{"type":"Point","coordinates":[6.162691982373778,6.260567120385312]}},{"type":"Feature","properties":{"agglosID":250.0,"agglosName":"Agboville","ISO3":"CIV","Pop2020":91975.0,"lc_10_fraction":0.31945,"lc_20_fraction":0.03197,"lc_30_fraction":0.12766,"PM25_2020":22.6630477905273,"annual_mean_temp":26.9410305023193,"annual_precipitation":1354.97424316406,"AEZ_NAME":"Tropic - warm / humid","UGS_fraction":0.47908},"geometry":{"type":"Point","coordinates":[-4.209936993128819,5.923906742481396]}},{"type":"Feature","properties":{"agglosID":251.0,"agglosName":"Agbozounkpa","ISO3":"BEN","Pop2020":19377.0,"lc_10_fraction":0.58416,"lc_20_fraction":0.05643,"lc_30_fraction":0.03074,"PM25_2020":36.9018821716309,"annual_mean_temp":27.2275371551514,"annual_precipitation":1055.8681640625,"AEZ_NAME":"Tropic - warm / subhumid","UGS_fraction":0.67133},"geometry":{"type":"Point","coordinates":[2.27316578212243,6.9224110406279]}},{"type":"Feature","properties":{"agglosID":252.0,"agglosName":"Agdz","ISO3":"MAR","Pop2020":18135.0,"lc_10_fraction":0.06894,"lc_20_fraction":0.02055,"lc_30_fraction":0.00046,"PM25_2020":22.4959774017334,"annual_mean_temp":20.3501853942871,"annual_precipitation":125.2197265625,"AEZ_NAME":"Subtropic - cool / arid","UGS_fraction":0.08995},"geometry":{"type":"Point","coordinates":[-6.448175110385838,30.710573385080609]}},{"type":"Feature","properties":{"agglosID":253.0,"agglosName":"Ado/isalu/iyafin","ISO3":"NGA","Pop2020":200216.0,"lc_10_fraction":0.26022,"lc_20_fraction":0.00199,"lc_30_fraction":0.39504,"PM25_2020":41.5831298828125,"annual_mean_temp":27.1739978790283,"annual_precipitation":1393.94836425781,"AEZ_NAME":"Tropic - warm / subhumid","UGS_fraction":0.65725},"geometry":{"type":"Point","coordinates":[2.943149802734796,6.527742057346838]}},{"type":"Feature","properties":{"agglosID":255.0,"agglosName":"Agena","ISO3":"ETH","Pop2020":15797.0,"lc_10_fraction":0.13735,"lc_20_fraction":0.17204,"lc_30_fraction":0.08889,"PM25_2020":22.6121826171875,"annual_mean_temp":17.364128112793,"annual_precipitation":1118.06164550781,"AEZ_NAME":"Tropic - cool / subhumid","UGS_fraction":0.39827999999999999},"geometry":{"type":"Point","coordinates":[37.96619595343843,8.151401293242598]}},{"type":"Feature","properties":{"agglosID":256.0,"agglosName":"Agenebode","ISO3":"NGA","Pop2020":21071.0,"lc_10_fraction":0.33843,"lc_20_fraction":0.07421,"lc_30_fraction":0.07648,"PM25_2020":45.5339012145996,"annual_mean_temp":27.3527126312256,"annual_precipitation":1318.48767089844,"AEZ_NAME":"Tropic - warm / subhumid","UGS_fraction":0.48912},"geometry":{"type":"Point","coordinates":[6.688841945224588,7.101500376215286]}},{"type":"Feature","properties":{"agglosID":260.0,"agglosName":"Agnam thiodaye","ISO3":"SEN","Pop2020":15900.0,"lc_10_fraction":0.01061,"lc_20_fraction":0.03051,"lc_30_fraction":0.54911,"PM25_2020":46.1933517456055,"annual_mean_temp":30.2629165649414,"annual_precipitation":295.611694335938,"AEZ_NAME":"Tropic - warm / semiarid","UGS_fraction":0.59023},"geometry":{"type":"Point","coordinates":[-13.656635829871345,15.989245779389503]}},{"type":"Feature","properties":{"agglosID":261.0,"agglosName":"Agnibilekrou","ISO3":"CIV","Pop2020":63660.0,"lc_10_fraction":0.22851,"lc_20_fraction":0.04493,"lc_30_fraction":0.1593,"PM25_2020":24.0372428894043,"annual_mean_temp":26.2753276824951,"annual_precipitation":1182.88439941406,"AEZ_NAME":"Tropic - warm / humid","UGS_fraction":0.43274},"geometry":{"type":"Point","coordinates":[-3.206848911294233,7.136829484973744]}},{"type":"Feature","properties":{"agglosID":262.0,"agglosName":"Ago amadu","ISO3":"NGA","Pop2020":24180.0,"lc_10_fraction":0.36388,"lc_20_fraction":0.12991,"lc_30_fraction":0.10217,"PM25_2020":48.3509178161621,"annual_mean_temp":25.9898929595947,"annual_precipitation":1120.26013183594,"AEZ_NAME":"Tropic - warm / subhumid","UGS_fraction":0.5959599999999999},"geometry":{"type":"Point","coordinates":[3.642715329951713,8.625463291798916]}},{"type":"Feature","properties":{"agglosID":264.0,"agglosName":"Agosasa","ISO3":"NGA","Pop2020":78714.0,"lc_10_fraction":0.65019,"lc_20_fraction":0.00797,"lc_30_fraction":0.10207,"PM25_2020":41.3396034240723,"annual_mean_temp":27.2550601959229,"annual_precipitation":1309.01525878906,"AEZ_NAME":"Tropic - warm / subhumid","UGS_fraction":0.7602300000000001},"geometry":{"type":"Point","coordinates":[2.761368697244793,6.547366897791606]}},{"type":"Feature","properties":{"agglosID":265.0,"agglosName":"Agogo","ISO3":"GHA","Pop2020":44296.0,"lc_10_fraction":0.24169,"lc_20_fraction":0.00056,"lc_30_fraction":0.1318,"PM25_2020":35.1179466247559,"annual_mean_temp":24.4377937316895,"annual_precipitation":1311.24865722656,"AEZ_NAME":"Tropic - warm / humid","UGS_fraction":0.37405},"geometry":{"type":"Point","coordinates":[-1.088473655872489,6.79498287504711]}},{"type":"Feature","properties":{"agglosID":266.0,"agglosName":"Agon","ISO3":"BEN","Pop2020":17585.0,"lc_10_fraction":0.55192,"lc_20_fraction":0.12395,"lc_30_fraction":0.04594,"PM25_2020":32.9736480712891,"annual_mean_temp":26.8837280273438,"annual_precipitation":1084.68395996094,"AEZ_NAME":"Tropic - warm / subhumid","UGS_fraction":0.72181},"geometry":{"type":"Point","coordinates":[2.229110212852038,6.845854952099908]}},{"type":"Feature","properties":{"agglosID":267.0,"agglosName":"Agona","ISO3":"GHA","Pop2020":16054.0,"lc_10_fraction":0.3805,"lc_20_fraction":0.00162,"lc_30_fraction":0.23403,"PM25_2020":31.8663578033447,"annual_mean_temp":24.7224578857422,"annual_precipitation":1295.5390625,"AEZ_NAME":"Tropic - warm / humid","UGS_fraction":0.61615},"geometry":{"type":"Point","coordinates":[-1.495326702374533,6.92672902020601]}},{"type":"Feature","properties":{"agglosID":268.0,"agglosName":"Agona kwanyako","ISO3":"GHA","Pop2020":12450.0,"lc_10_fraction":0.60375,"lc_20_fraction":0.05224,"lc_30_fraction":0.06352,"PM25_2020":24.7326755523682,"annual_mean_temp":26.6701240539551,"annual_precipitation":1184.88708496094,"AEZ_NAME":"Tropic - warm / subhumid","UGS_fraction":0.71951},"geometry":{"type":"Point","coordinates":[-0.638152006704159,5.58786619080995]}},{"type":"Feature","properties":{"agglosID":269.0,"agglosName":"Agona nkwanta","ISO3":"GHA","Pop2020":19854.0,"lc_10_fraction":0.52501,"lc_20_fraction":0.00972,"lc_30_fraction":0.15213,"PM25_2020":22.566011428833,"annual_mean_temp":26.1394844055176,"annual_precipitation":1588.90783691406,"AEZ_NAME":"Tropic - warm / subhumid","UGS_fraction":0.6868599999999999},"geometry":{"type":"Point","coordinates":[-1.9630166585273,4.89453578749406]}},{"type":"Feature","properties":{"agglosID":270.0,"agglosName":"Agona nsaba","ISO3":"GHA","Pop2020":20134.0,"lc_10_fraction":0.56415,"lc_20_fraction":0.03177,"lc_30_fraction":0.0113,"PM25_2020":25.2437114715576,"annual_mean_temp":26.2805099487305,"annual_precipitation":1374.99450683594,"AEZ_NAME":"Tropic - warm / subhumid","UGS_fraction":0.60722},"geometry":{"type":"Point","coordinates":[-0.750574895356573,5.644093449183522]}},{"type":"Feature","properties":{"agglosID":271.0,"agglosName":"Agona nyakrom","ISO3":"GHA","Pop2020":21995.0,"lc_10_fraction":0.6078,"lc_20_fraction":0.07455,"lc_30_fraction":0.00865,"PM25_2020":24.5546951293945,"annual_mean_temp":26.4006690979004,"annual_precipitation":1384.94775390625,"AEZ_NAME":"Tropic - warm / subhumid","UGS_fraction":0.6910000000000001},"geometry":{"type":"Point","coordinates":[-0.774327455243432,5.61190031596448]}},{"type":"Feature","properties":{"agglosID":272.0,"agglosName":"Agona swedru","ISO3":"GHA","Pop2020":147959.0,"lc_10_fraction":0.48511,"lc_20_fraction":0.04723,"lc_30_fraction":0.06587,"PM25_2020":23.7590885162354,"annual_mean_temp":26.5962181091309,"annual_precipitation":1238.48779296875,"AEZ_NAME":"Tropic - warm / subhumid","UGS_fraction":0.59821},"geometry":{"type":"Point","coordinates":[-0.687767728498989,5.543685560795544]}},{"type":"Feature","properties":{"agglosID":275.0,"agglosName":"Agourai","ISO3":"MAR","Pop2020":20506.0,"lc_10_fraction":0.10876,"lc_20_fraction":0.01432,"lc_30_fraction":0.29549,"PM25_2020":16.3943157196045,"annual_mean_temp":15.3664197921753,"annual_precipitation":527.79150390625,"AEZ_NAME":"Subtropic - cool / subhumid","UGS_fraction":0.41857},"geometry":{"type":"Point","coordinates":[-5.591450651042092,33.643334985579759]}},{"type":"Feature","properties":{"agglosID":277.0,"agglosName":"Aguelmous","ISO3":"MAR","Pop2020":16598.0,"lc_10_fraction":0.02404,"lc_20_fraction":0.00885,"lc_30_fraction":0.24163,"PM25_2020":20.7259788513184,"annual_mean_temp":14.3547687530518,"annual_precipitation":585.355773925781,"AEZ_NAME":"Subtropic - cool / subhumid","UGS_fraction":0.27452},"geometry":{"type":"Point","coordinates":[-5.84243295153377,33.158017307438999]}},{"type":"Feature","properties":{"agglosID":278.0,"agglosName":"Aguie","ISO3":"NER","Pop2020":23973.0,"lc_10_fraction":0.00272,"lc_20_fraction":0.0124,"lc_30_fraction":0.11193,"PM25_2020":85.8523559570312,"annual_mean_temp":27.0211009979248,"annual_precipitation":436.125549316406,"AEZ_NAME":"Tropic - warm / semiarid","UGS_fraction":0.12705},"geometry":{"type":"Point","coordinates":[7.779534496501284,13.501445101735908]}},{"type":"Feature","properties":{"agglosID":280.0,"agglosName":"Agumu koshi","ISO3":"NGA","Pop2020":13380.0,"lc_10_fraction":0.00554,"lc_20_fraction":0.02566,"lc_30_fraction":0.12833,"PM25_2020":61.3639259338379,"annual_mean_temp":28.0910224914551,"annual_precipitation":1013.46514892578,"AEZ_NAME":"Tropic - warm / semiarid","UGS_fraction":0.15953},"geometry":{"type":"Point","coordinates":[4.359170223581146,10.52158589133139]}},{"type":"Feature","properties":{"agglosID":281.0,"agglosName":"Agwa","ISO3":"NGA","Pop2020":53758.0,"lc_10_fraction":0.32235,"lc_20_fraction":0.0,"lc_30_fraction":0.29856,"PM25_2020":51.3631973266602,"annual_mean_temp":26.300407409668,"annual_precipitation":2481.3935546875,"AEZ_NAME":"Tropic - warm / humid","UGS_fraction":0.6209100000000001},"geometry":{"type":"Point","coordinates":[6.920502490765438,4.983001572782222]}},{"type":"Feature","properties":{"agglosID":283.0,"agglosName":"Aha","ISO3":"NGA","Pop2020":13807.0,"lc_10_fraction":0.21461,"lc_20_fraction":0.18927,"lc_30_fraction":0.15478,"PM25_2020":49.8611030578613,"annual_mean_temp":25.7700786590576,"annual_precipitation":1131.49670410156,"AEZ_NAME":"Tropic - warm / subhumid","UGS_fraction":0.55866},"geometry":{"type":"Point","coordinates":[3.508550116274884,8.586842310684509]}},{"type":"Feature","properties":{"agglosID":284.0,"agglosName":"Ahaba","ISO3":"NGA","Pop2020":29086.0,"lc_10_fraction":0.5694,"lc_20_fraction":0.00583,"lc_30_fraction":0.06679,"PM25_2020":26.7689304351807,"annual_mean_temp":26.4366645812988,"annual_precipitation":2089.64184570312,"AEZ_NAME":"Tropic - warm / subhumid","UGS_fraction":0.64202},"geometry":{"type":"Point","coordinates":[7.536537718147746,5.733399860009458]}},{"type":"Feature","properties":{"agglosID":285.0,"agglosName":"Ahépé","ISO3":"TGO","Pop2020":30814.0,"lc_10_fraction":0.60929,"lc_20_fraction":0.06105,"lc_30_fraction":0.02665,"PM25_2020":28.9556636810303,"annual_mean_temp":26.1444320678711,"annual_precipitation":1067.4658203125,"AEZ_NAME":"Tropic - warm / subhumid","UGS_fraction":0.69699},"geometry":{"type":"Point","coordinates":[1.395558090332315,6.607155355170342]}},{"type":"Feature","properties":{"agglosID":287.0,"agglosName":"Ahfir","ISO3":"MAR","Pop2020":33333.0,"lc_10_fraction":0.03552,"lc_20_fraction":0.04651,"lc_30_fraction":0.32922,"PM25_2020":10.8714275360107,"annual_mean_temp":17.7484455108643,"annual_precipitation":349.612213134766,"AEZ_NAME":"Subtropic - warm / semiarid","UGS_fraction":0.41125},"geometry":{"type":"Point","coordinates":[-2.108251129840357,34.940352326754837]}},{"type":"Feature","properties":{"agglosID":288.0,"agglosName":"Ahigbe-koffikro","ISO3":"CIV","Pop2020":21607.0,"lc_10_fraction":0.25175,"lc_20_fraction":0.15388,"lc_30_fraction":0.08661,"PM25_2020":21.618278503418,"annual_mean_temp":26.2456588745117,"annual_precipitation":1697.46984863281,"AEZ_NAME":"Tropic - warm / humid","UGS_fraction":0.49223999999999998},"geometry":{"type":"Point","coordinates":[-3.386193458861548,5.402934669001514]}},{"type":"Feature","properties":{"agglosID":289.0,"agglosName":"Ahmar mawjy","ISO3":"SDN","Pop2020":13892.0,"lc_10_fraction":0.0117,"lc_20_fraction":0.00268,"lc_30_fraction":0.86209,"PM25_2020":33.4742317199707,"annual_mean_temp":28.6475028991699,"annual_precipitation":621.841186523438,"AEZ_NAME":"Tropic - warm / semiarid","UGS_fraction":0.87647},"geometry":{"type":"Point","coordinates":[34.271457352919657,12.407012124431596]}},{"type":"Feature","properties":{"agglosID":290.0,"agglosName":"Ahmed rachedi","ISO3":"DZA","Pop2020":11811.0,"lc_10_fraction":0.04822,"lc_20_fraction":0.0022,"lc_30_fraction":0.12145,"PM25_2020":15.4487371444702,"annual_mean_temp":15.9403734207153,"annual_precipitation":624.674682617188,"AEZ_NAME":"Subtropic - warm / subhumid","UGS_fraction":0.17187},"geometry":{"type":"Point","coordinates":[6.130068056555858,36.3907586985018]}},{"type":"Feature","properties":{"agglosID":291.0,"agglosName":"Ahmer el ain","ISO3":"DZA","Pop2020":18121.0,"lc_10_fraction":0.06557,"lc_20_fraction":0.00254,"lc_30_fraction":0.20389,"PM25_2020":11.5717973709106,"annual_mean_temp":18.1320667266846,"annual_precipitation":676.167846679688,"AEZ_NAME":"Subtropic - warm / subhumid","UGS_fraction":0.272},"geometry":{"type":"Point","coordinates":[2.565454283057804,36.471342900687428]}},{"type":"Feature","properties":{"agglosID":292.0,"agglosName":"Ahnasya","ISO3":"EGY","Pop2020":82857.0,"lc_10_fraction":0.06629,"lc_20_fraction":0.00893,"lc_30_fraction":0.00254,"PM25_2020":46.7010917663574,"annual_mean_temp":21.4468841552734,"annual_precipitation":6.0,"AEZ_NAME":"Subtropic - warm / arid","UGS_fraction":0.07776000000000001},"geometry":{"type":"Point","coordinates":[30.946546305985814,29.086631900455076]}},{"type":"Feature","properties":{"agglosID":293.0,"agglosName":"Ahnasya al-khadra","ISO3":"EGY","Pop2020":18930.0,"lc_10_fraction":0.08137,"lc_20_fraction":0.00082,"lc_30_fraction":0.00004,"PM25_2020":46.6945533752441,"annual_mean_temp":21.4766006469727,"annual_precipitation":5.9673342704773,"AEZ_NAME":"Subtropic - warm / arid","UGS_fraction":0.08223},"geometry":{"type":"Point","coordinates":[31.02110526319778,29.092377408325079]}},{"type":"Feature","properties":{"agglosID":294.0,"agglosName":"Ahoada","ISO3":"NGA","Pop2020":96237.0,"lc_10_fraction":0.33579,"lc_20_fraction":0.0,"lc_30_fraction":0.13233,"PM25_2020":52.6521186828613,"annual_mean_temp":26.553991317749,"annual_precipitation":2531.41796875,"AEZ_NAME":"Tropic - warm / humid","UGS_fraction":0.46812},"geometry":{"type":"Point","coordinates":[6.651663290373006,5.08014929894822]}},{"type":"Feature","properties":{"agglosID":295.0,"agglosName":"Ahomey glon","ISO3":"BEN","Pop2020":15665.0,"lc_10_fraction":0.00585,"lc_20_fraction":0.00037,"lc_30_fraction":0.16275,"PM25_2020":37.6684036254883,"annual_mean_temp":27.4386367797852,"annual_precipitation":1153.22814941406,"AEZ_NAME":"Tropic - warm / subhumid","UGS_fraction":0.16897},"geometry":{"type":"Point","coordinates":[2.407255206106674,6.54224625499375]}},{"type":"Feature","properties":{"agglosID":298.0,"agglosName":"Aidu","ISO3":"NGA","Pop2020":34177.0,"lc_10_fraction":0.01313,"lc_20_fraction":0.00549,"lc_30_fraction":0.02639,"PM25_2020":86.9303359985352,"annual_mean_temp":26.2440395355225,"annual_precipitation":747.717102050781,"AEZ_NAME":"Tropic - warm / semiarid","UGS_fraction":0.045009999999999997},"geometry":{"type":"Point","coordinates":[7.332735197868304,12.261083477939476]}},{"type":"Feature","properties":{"agglosID":300.0,"agglosName":"Ain kechera","ISO3":"DZA","Pop2020":20725.0,"lc_10_fraction":0.34859,"lc_20_fraction":0.03832,"lc_30_fraction":0.30891,"PM25_2020":12.5822925567627,"annual_mean_temp":16.6057147979736,"annual_precipitation":1021.810546875,"AEZ_NAME":"Subtropic - warm / subhumid","UGS_fraction":0.6958200000000001},"geometry":{"type":"Point","coordinates":[6.43450299525253,36.75014002463]}},{"type":"Feature","properties":{"agglosID":301.0,"agglosName":"Ain abid","ISO3":"DZA","Pop2020":30342.0,"lc_10_fraction":0.00566,"lc_20_fraction":0.00009,"lc_30_fraction":0.13473,"PM25_2020":14.7355709075928,"annual_mean_temp":14.5157432556152,"annual_precipitation":592.136352539062,"AEZ_NAME":"Subtropic - cool / subhumid","UGS_fraction":0.14048},"geometry":{"type":"Point","coordinates":[6.94412847765958,36.23396501754543]}},{"type":"Feature","properties":{"agglosID":302.0,"agglosName":"Ain arnat","ISO3":"DZA","Pop2020":30656.0,"lc_10_fraction":0.00935,"lc_20_fraction":0.00313,"lc_30_fraction":0.1635,"PM25_2020":15.6862497329712,"annual_mean_temp":14.488486289978,"annual_precipitation":434.762542724609,"AEZ_NAME":"Subtropic - cool / subhumid","UGS_fraction":0.17598},"geometry":{"type":"Point","coordinates":[5.311706639598952,36.18319804944717]}},{"type":"Feature","properties":{"agglosID":304.0,"agglosName":"Ain azel","ISO3":"DZA","Pop2020":45290.0,"lc_10_fraction":0.01483,"lc_20_fraction":0.00427,"lc_30_fraction":0.10256,"PM25_2020":17.1580066680908,"annual_mean_temp":13.7683668136597,"annual_precipitation":353.990814208984,"AEZ_NAME":"Subtropic - cool / semiarid","UGS_fraction":0.12165999999999999},"geometry":{"type":"Point","coordinates":[5.515999931502238,35.819195526576859]}},{"type":"Feature","properties":{"agglosID":305.0,"agglosName":"Ain babouche","ISO3":"DZA","Pop2020":14745.0,"lc_10_fraction":0.04159,"lc_20_fraction":0.0161,"lc_30_fraction":0.15804,"PM25_2020":17.4571590423584,"annual_mean_temp":15.3837060928345,"annual_precipitation":459.849517822266,"AEZ_NAME":"Subtropic - cool / subhumid","UGS_fraction":0.21573000000000004},"geometry":{"type":"Point","coordinates":[7.18838158841735,35.93770056903546]}},{"type":"Feature","properties":{"agglosID":306.0,"agglosName":"Ain beida","ISO3":"DZA","Pop2020":160004.0,"lc_10_fraction":0.02075,"lc_20_fraction":0.00696,"lc_30_fraction":0.09983,"PM25_2020":17.1930179595947,"annual_mean_temp":14.8715934753418,"annual_precipitation":456.598785400391,"AEZ_NAME":"Subtropic - cool / subhumid","UGS_fraction":0.12754000000000002},"geometry":{"type":"Point","coordinates":[7.385604484230822,35.786501076061338]}},{"type":"Feature","properties":{"agglosID":309.0,"agglosName":"Ain beida harriche","ISO3":"DZA","Pop2020":30011.0,"lc_10_fraction":0.0693,"lc_20_fraction":0.00075,"lc_30_fraction":0.29861,"PM25_2020":13.8882474899292,"annual_mean_temp":15.401481628418,"annual_precipitation":637.873229980469,"AEZ_NAME":"Subtropic - warm / subhumid","UGS_fraction":0.36866},"geometry":{"type":"Point","coordinates":[5.88892604894899,36.391925923340938]}},{"type":"Feature","properties":{"agglosID":310.0,"agglosName":"Ain bessem","ISO3":"DZA","Pop2020":44803.0,"lc_10_fraction":0.05909,"lc_20_fraction":0.00127,"lc_30_fraction":0.06806,"PM25_2020":12.022928237915,"annual_mean_temp":15.7191762924194,"annual_precipitation":613.914306640625,"AEZ_NAME":"Subtropic - warm / subhumid","UGS_fraction":0.12841999999999999},"geometry":{"type":"Point","coordinates":[3.67116629217445,36.29451575665388]}},{"type":"Feature","properties":{"agglosID":311.0,"agglosName":"Ain bni mathar","ISO3":"MAR","Pop2020":18847.0,"lc_10_fraction":0.02326,"lc_20_fraction":0.03699,"lc_30_fraction":0.04069,"PM25_2020":21.5028743743896,"annual_mean_temp":15.5352649688721,"annual_precipitation":320.694946289062,"AEZ_NAME":"Subtropic - cool / semiarid","UGS_fraction":0.10094},"geometry":{"type":"Point","coordinates":[-2.026201756757757,34.01774965242597]}},{"type":"Feature","properties":{"agglosID":312.0,"agglosName":"Ain boucif","ISO3":"DZA","Pop2020":20086.0,"lc_10_fraction":0.01929,"lc_20_fraction":0.01199,"lc_30_fraction":0.33799,"PM25_2020":14.6153154373169,"annual_mean_temp":13.4766082763672,"annual_precipitation":494.615570068359,"AEZ_NAME":"Subtropic - cool / subhumid","UGS_fraction":0.36927},"geometry":{"type":"Point","coordinates":[3.150681450156651,35.88929827506236]}},{"type":"Feature","properties":{"agglosID":313.0,"agglosName":"Ain charchar","ISO3":"DZA","Pop2020":14791.0,"lc_10_fraction":0.07615,"lc_20_fraction":0.0118,"lc_30_fraction":0.26805,"PM25_2020":12.8267889022827,"annual_mean_temp":17.6745738983154,"annual_precipitation":668.827514648438,"AEZ_NAME":"Subtropic - warm / subhumid","UGS_fraction":0.356},"geometry":{"type":"Point","coordinates":[7.225006608625964,36.73394134998094]}},{"type":"Feature","properties":{"agglosID":314.0,"agglosName":"Ain defla","ISO3":"DZA","Pop2020":101527.0,"lc_10_fraction":0.0769,"lc_20_fraction":0.00267,"lc_30_fraction":0.20334,"PM25_2020":11.2023468017578,"annual_mean_temp":18.0799293518066,"annual_precipitation":556.3701171875,"AEZ_NAME":"Subtropic - warm / subhumid","UGS_fraction":0.28291},"geometry":{"type":"Point","coordinates":[1.869482653398759,36.21751468329672]}},{"type":"Feature","properties":{"agglosID":315.0,"agglosName":"Ain deheb","ISO3":"DZA","Pop2020":30070.0,"lc_10_fraction":0.03602,"lc_20_fraction":0.0098,"lc_30_fraction":0.04975,"PM25_2020":17.4005908966064,"annual_mean_temp":13.9317951202393,"annual_precipitation":313.993194580078,"AEZ_NAME":"Subtropic - cool / semiarid","UGS_fraction":0.09557},"geometry":{"type":"Point","coordinates":[1.550593934693033,34.847492075784028]}},{"type":"Feature","properties":{"agglosID":316.0,"agglosName":"Ain djasser","ISO3":"DZA","Pop2020":12659.0,"lc_10_fraction":0.00453,"lc_20_fraction":0.02027,"lc_30_fraction":0.15908,"PM25_2020":18.0351867675781,"annual_mean_temp":14.0504426956177,"annual_precipitation":373.085174560547,"AEZ_NAME":"Subtropic - cool / semiarid","UGS_fraction":0.18388},"geometry":{"type":"Point","coordinates":[6.002037617553562,35.86242206718295]}},{"type":"Feature","properties":{"agglosID":318.0,"agglosName":"Ain el aouda","ISO3":"MAR","Pop2020":67431.0,"lc_10_fraction":0.01566,"lc_20_fraction":0.00929,"lc_30_fraction":0.24581,"PM25_2020":16.9190826416016,"annual_mean_temp":17.0730800628662,"annual_precipitation":480.112762451172,"AEZ_NAME":"Subtropic - warm / subhumid","UGS_fraction":0.27076},"geometry":{"type":"Point","coordinates":[-6.797489172064566,33.79485390438279]}},{"type":"Feature","properties":{"agglosID":319.0,"agglosName":"Ain el arbaa","ISO3":"DZA","Pop2020":15301.0,"lc_10_fraction":0.0407,"lc_20_fraction":0.00273,"lc_30_fraction":0.05055,"PM25_2020":10.6108818054199,"annual_mean_temp":18.0729236602783,"annual_precipitation":361.397613525391,"AEZ_NAME":"Subtropic - warm / semiarid","UGS_fraction":0.09398},"geometry":{"type":"Point","coordinates":[-0.88034492533503,35.405511822548337]}},{"type":"Feature","properties":{"agglosID":320.0,"agglosName":"Ain el assel","ISO3":"DZA","Pop2020":15284.0,"lc_10_fraction":0.10696,"lc_20_fraction":0.0101,"lc_30_fraction":0.19265,"PM25_2020":12.961181640625,"annual_mean_temp":17.917459487915,"annual_precipitation":848.380737304688,"AEZ_NAME":"Subtropic - warm / subhumid","UGS_fraction":0.30971},"geometry":{"type":"Point","coordinates":[8.379978062701977,36.785284395016279]}},{"type":"Feature","properties":{"agglosID":321.0,"agglosName":"Ain el berd","ISO3":"DZA","Pop2020":14747.0,"lc_10_fraction":0.02972,"lc_20_fraction":0.00847,"lc_30_fraction":0.15671,"PM25_2020":12.1020288467407,"annual_mean_temp":16.2685947418213,"annual_precipitation":426.356018066406,"AEZ_NAME":"Subtropic - warm / semiarid","UGS_fraction":0.1949},"geometry":{"type":"Point","coordinates":[-0.511687956494999,35.367174953061539]}},{"type":"Feature","properties":{"agglosID":323.0,"agglosName":"Ain el hadid","ISO3":"DZA","Pop2020":13373.0,"lc_10_fraction":0.0056,"lc_20_fraction":0.00314,"lc_30_fraction":0.07344,"PM25_2020":12.468053817749,"annual_mean_temp":16.0040664672852,"annual_precipitation":414.101928710938,"AEZ_NAME":"Subtropic - cool / semiarid","UGS_fraction":0.08218},"geometry":{"type":"Point","coordinates":[0.882538614870372,35.06152696973302]}},{"type":"Feature","properties":{"agglosID":324.0,"agglosName":"Ain el hadjar 2","ISO3":"DZA","Pop2020":28151.0,"lc_10_fraction":0.01534,"lc_20_fraction":0.00664,"lc_30_fraction":0.20192,"PM25_2020":15.2521324157715,"annual_mean_temp":15.3849754333496,"annual_precipitation":333.924102783203,"AEZ_NAME":"Subtropic - cool / semiarid","UGS_fraction":0.2239},"geometry":{"type":"Point","coordinates":[0.151186017209542,34.76113120993381]}},{"type":"Feature","properties":{"agglosID":325.0,"agglosName":"Ain el hadjar 1","ISO3":"DZA","Pop2020":13865.0,"lc_10_fraction":0.00552,"lc_20_fraction":0.01074,"lc_30_fraction":0.14629,"PM25_2020":19.0399856567383,"annual_mean_temp":14.2583808898926,"annual_precipitation":359.858062744141,"AEZ_NAME":"Subtropic - cool / semiarid","UGS_fraction":0.16255},"geometry":{"type":"Point","coordinates":[5.51177638627588,35.90239544450281]}},{"type":"Feature","properties":{"agglosID":326.0,"agglosName":"Ain el hadjel","ISO3":"DZA","Pop2020":35893.0,"lc_10_fraction":0.00967,"lc_20_fraction":0.00339,"lc_30_fraction":0.05964,"PM25_2020":17.3833236694336,"annual_mean_temp":17.6929759979248,"annual_precipitation":276.411865234375,"AEZ_NAME":"Subtropic - warm / semiarid","UGS_fraction":0.0727},"geometry":{"type":"Point","coordinates":[3.887463366856483,35.66485891312957]}},{"type":"Feature","properties":{"agglosID":327.0,"agglosName":"Ain el hammam","ISO3":"DZA","Pop2020":84383.0,"lc_10_fraction":0.47489,"lc_20_fraction":0.03309,"lc_30_fraction":0.2129,"PM25_2020":11.8108367919922,"annual_mean_temp":15.8325386047363,"annual_precipitation":942.518249511719,"AEZ_NAME":null,"UGS_fraction":0.72088},"geometry":{"type":"Point","coordinates":[4.380299077226136,36.60339242440743]}},{"type":"Feature","properties":{"agglosID":328.0,"agglosName":"Ain el ibel","ISO3":"DZA","Pop2020":23822.0,"lc_10_fraction":0.02485,"lc_20_fraction":0.07997,"lc_30_fraction":0.02225,"PM25_2020":17.7739772796631,"annual_mean_temp":15.5585193634033,"annual_precipitation":255.293411254883,"AEZ_NAME":"Subtropic - cool / semiarid","UGS_fraction":0.12707},"geometry":{"type":"Point","coordinates":[3.219210779911675,34.355545197087767]}},{"type":"Feature","properties":{"agglosID":329.0,"agglosName":"Ain el kebira","ISO3":"DZA","Pop2020":38247.0,"lc_10_fraction":0.05968,"lc_20_fraction":0.00626,"lc_30_fraction":0.39444,"PM25_2020":13.9843368530273,"annual_mean_temp":13.9697751998901,"annual_precipitation":633.061645507812,"AEZ_NAME":"Subtropic - cool / subhumid","UGS_fraction":0.46038},"geometry":{"type":"Point","coordinates":[5.508161126849804,36.370081336017417]}},