agglosID,x,y,CentreLon,CentreLat,agglosName,ISO3
1,31.741,30.288,31.7648158293359,30.2623655762109,10 Ramadan,EGY
4,29.112,-28.244,29.1052427407032,-28.2488367122265,42nd Hill,ZAF
5,46.217,6.251,46.224549077656,6.24635655820312,Aabudwaaq,SOM
6,46.631,6.137,46.6269228378124,6.13579779421875,Aadado,SOM
8,32.717,13.244,32.7159829595312,13.2453702021875,Aasalaya,SDN
9,7.357,5.224,7.37566955804688,5.09495099667969,Aba,NGA
11,30.77,28.588,30.7536902079297,28.5784846857422,Aba al-Waqf,EGY
14,-2.709,31.029,-2.71048963984374,31.0313812754296,Abadla,DZA
15,6.952,8.471,6.94529175214845,8.47218656812503,Abaji,NGA
17,8.098,6.288,8.1161996743750109,6.32137643390622,Abakaliki,NGA
18,39.754,13.357,39.7520653766016,13.3564114439063,Abala,ETH
19,3.43,14.929,3.43163822910157,14.9309462032422,Abala Maidagi,NER
20,6.283,15.46,6.28083434562501,15.4592896067188,Abalak,NER
22,6.231,5.729,6.23171236433597,5.72944008613281,Abbi,NGA
23,0.275,36.107,0.273326126562501,36.1030155955469,Abdelmalek Ramdane,DZA
24,36.47,13.699,36.4733568674216,13.6950434603515,Abderafi,ETH
26,4.319,8.268,4.31923318531251,8.26765481249996,Abduka,NGA
28,-3.497,6.74,-3.49597374601562,6.72624489742188,Abengourou,CIV
29,3.377,7.17,3.37489497222658,7.15581834406251,Abeokuta,NGA
30,-0.745,6.673,-0.746279266601562,6.6732278167578,Abetifi,GHA
32,-3.949,5.368,-3.91167477277347,5.25129526101563,Abidjan,CIV
34,8.747,7.751,8.75145869273434,7.75538954015628,Abinsi,NGA
35,7.735,5.702,7.73508478328125,5.69644827683594,Abiriba,NGA
39,37.167,11.326,37.1463438790625,11.3223872383984,Abiyot Fana,ETH
44,-1.734,7.132,-1.73394484480468,7.13394037539062,Abofour,GHA
45,3.713,6.643,3.71302002347658,6.64413000765626,Abogwa,NGA
46,-3.205,5.469,-3.20758062816406,5.46855762843752,Aboisso,CIV
47,-3.404,5.735,-3.40396418664062,5.73588159007814,Aboisso-Comoe,CIV
48,2.136,6.847,2.13992868898438,6.85113473582035,Abolou,BEN
49,2.062,7.185,2.0652275761328,7.17854589890624,Abomey,BEN
51,39.833,8.489,39.8295737292578,8.48762863132809,Abomsa,ETH
53,-4.105,6.657,-4.10016791398436,6.65162523347657,Abongoua,CIV
54,6.767,4.752,6.76917386730468,4.76082989277345,Abonnema,NGA
55,37.029,9.986,37.0294909727346,9.99341379914064,Abora,ETH
56,-1.947,5.359,-1.94727633210938,5.35719187609373,Aboso,GHA
57,1.187,36.42,1.19456826789063,36.415755781875,Abou El Hassan,DZA
58,-4.565,5.897,-4.56854765085937,5.89624220785154,Aboude-Kouassikro,CIV
60,6.108,5.79,6.10209214261718,5.78727025941404,Abraka,NGA
61,30.729,27.846,30.7308900989843,27.857792270703,Abshadat,EGY
62,31.165,31.173,31.164794703164,31.1678640142188,Abshan,EGY
63,30.683,29.374,30.6812471345313,29.3596982260156,Abshaway,EGY
64,31.051,29.144,31.0502632257032,29.1459660517189,Abshina & Bani Musa,EGY
65,30.89,28.852,30.8878699049999,28.851914836875,Absug,EGY
71,30.222,30.9,30.1758229067188,30.9089393933593,Abu al-Matamir,EGY
73,32.884,24.19,32.8782743405858,24.2082790573827,Abu al-Rish Bahri,EGY
74,30.413,30.885,30.4055354610936,30.9007363272264,Abu al-Shiqaf,EGY
75,31.601,30.829,31.6023547682033,30.8281398994921,Abu al-Shuquq,EGY
79,30.678,29.291,30.6782059434376,29.2907857773047,Abu Danqash,EGY
80,30.621,31.223,30.6226942818751,31.2250089916407,Abu Darraz,EGY
81,31.354,31.303,31.3720281822655,31.3115998427737,Abu Dashisha,EGY
82,31.112,17.988,31.136951938164,17.9786471008594,Abu Dawn,SDN
83,31.365,30.869,31.3582991735156,30.8747187681249,Abu Dawud al-Inab,EGY
84,31.577,30.914,31.5778094056249,30.9111771391016,Abu Dawud al-Sabbakh,EGY
85,30.616,31.011,30.6220228456639,31.0056138814453,Abu Durra,EGY
86,31.562,31.278,31.5624209336719,31.2837189221484,Abu Galal,EGY
87,30.664,29.242,30.6806539212109,29.2392487059766,Abu Gandir,EGY
93,33.987,12.858,33.9901789539845,12.8550634536719,Abu Hijar,SDN
97,31.233,11.466,31.2353111722264,11.4552405441797,Abu Jubayha,SDN
98,31.671,30.733,31.6728629083985,30.7250008315625,Abu Kabir,EGY
101,30.791,12.146,30.792982294375,12.1494386025,Abu Karshulh Khawr al-Taina,SDN
103,38.343,9.913,38.3432869460939,9.91044870531248,Abu Kuke,ETH
104,30.732,30.934,30.7337482196484,30.9342982279296,Abu Mangug,EGY
105,32.403,26.162,32.421023227656,26.1529402245313,Abu Manna Bahri,EGY
107,32.474,26.18,32.4732778894922,26.1808143587108,Abu Manna Sharq,EGY
110,30.744,27.813,30.743138593086,27.8128207170704,Abu Qalta,EGY
114,31.236,29.664,31.2372382584375,29.6640505343358,Abu Ruwish,EGY
115,30.57,30.809,30.5847858921875,30.8022177826953,Abu Samada,EGY
116,32.075,30.557,32.1992481691799,30.5587157026172,Abu Sawir al-Balad,EGY
119,30.627,28.347,30.6246909269141,28.3382713751172,Abu Sidhum,EGY
121,31.091,29.255,31.0931489590626,29.2509038304687,Abu Sir al-Malaq,EGY
122,31.232,30.894,31.2120015153516,30.8808679658594,Abu Sir Bana,EGY
126,29.232,12.352,29.2363759390234,12.3537684811328,Abu Zabad,SDN
127,31.378,30.289,31.360781523125,30.2998841740626,Abu Zabal,EGY
131,6.028,6.296,6.02968038910155,6.29596730308592,Abudu,NGA
132,-1.652,4.979,-1.6365900946875,4.98393378839846,Abuesi,GHA
133,7.466,9.083,7.18068584445312,9.17894222035148,Abuja,NGA
134,7.257,8.97,7.26003200847656,8.96643745218747,Abuja Military Areas,NGA
135,7.662,12.871,7.66143810207034,12.8734415726172,Abukur,NGA
136,7.101,4.754,7.08470228960938,4.74167172195313,Abuloma,NGA
137,22.153,3.682,22.1523932525782,3.68842227933592,Abumombazi,COD
138,8.976,6.754,8.99225743230475,6.76972666058591,Abuochicie,NGA
139,-1.168,5.342,-1.17160236324219,5.34050012023435,Abura Dunkwa,GHA
140,-0.177,5.841,-0.175737336601562,5.84645744230466,Aburi,GHA
142,31.123,29.324,31.1240312348828,29.3198389070313,Abwit,EGY
143,30.866,30.84,30.8633321397265,30.8386403632032,Abyar,EGY
145,-0.203,5.657,-0.0388907668359385,5.69162724070311,Accra,GHA
147,6.987,6.337,6.9891566295703,6.33238795511717,Achalla,NGA
148,7.327,6.133,7.36816723933593,6.14282854507815,Achi,NGA
149,7.384,10.054,7.38442872179686,10.0555915525781,Achi,NGA
152,0.621,5.78,0.632640004218747,5.78342182582029,Ada Foah,GHA
153,39.428,7.013,39.392736358711,7.00653978824217,Adaba,ETH
154,2.559,7.455,2.56247854671874,7.45182736273437,Adakplame,BEN
155,39.271,8.535,39.2669826338674,8.54754738382817,Adama,ETH
156,38.704,7.856,38.7058619664842,7.86225947781247,Adami Tulu,ETH
159,38.773,8.884,38.6792192735547,9.06861002011711,Addis Ababa,ETH
160,38.398,9.045,38.398200454336,9.04593873164062,Addis Alem,ETH
162,36.887,11.085,36.8873121482811,11.0806947992969,Addis Kidam,ETH
167,4.456,10.691,4.45420128589845,10.6902504776562,Adehe,NGA
168,-0.484,5.793,-0.486802561132814,5.79551352398437,Adeiso,GHA
169,39.906,7.789,39.9069796188673,7.79333048085937,Adele,ETH
170,3.151,6.793,3.15961787562501,6.8063754207031,Adenrele,NGA
172,37.489,11.257,37.486527797461,11.2597214454297,Adet,ETH
173,0.735,7.146,0.732473607539062,7.12898931109373,Adeta,TGO
175,32.866,24.958,32.8781588478123,24.978107608711,Adfu,EGY
177,38.061,13.448,38.0615950628127,13.4490819283594,Adi Arkay,ETH
180,39.372,14.846,39.3685847158203,14.8488436357812,Adi Keyih,ERI
182,38.774,15.573,38.7780386791017,15.5673593961719,Adi Tekelezan,ERI
183,-3.303,5.285,-3.30413484109376,5.28637534253903,Adiake,CIV
184,-4.195,5.322,-4.18353904085934,5.3383897902344,Adiapoto 2,CIV
186,9.237,6.876,9.23372138726561,6.88914583316405,Adikpo,NGA
188,38.835,14.638,38.8343598200784,14.6336634316016,Adiquala,ERI
189,37.783,12.122,37.7826473264451,12.1249617876171,Adis Zemen,ETH
192,1.94,6.9,1.94057034492188,6.9013594846094,Adjaglimey,BEN
194,-6.84,4.765,-6.8411792611328,4.76690265066408,Adjamene,CIV
195,2.607,6.824,2.60999950097654,6.82480365949217,Adjegounle,BEN
196,1.017,8.662,1.01735132007812,8.66176479906252,Adjengre,TGO
198,31.79,3.369,31.790439030625,3.37719684640624,Adjumani,UGA
199,30.674,28.153,30.6773325747267,28.151426811211,Admu,EGY
200,39.267,7.259,39.26692232875,7.26006399375003,Ado Boelo,ETH
201,5.206,7.626,5.21689808085937,7.61261911089845,Ado Ekiti,NGA
202,2.933,6.586,2.9385356661328,6.59039342031253,Ado Odo,NGA
205,5.239,10.102,5.23930977355468,10.1028190807813,Adogo,NGA
206,6.472,7.516,6.47949367800783,7.50978364835937,Adogo/Eganyi/Iloshi/Ilubesechi,NGA
207,7.979,7.452,7.9800014453125,7.45325330835935,Adoka,NGA
208,38.986,5.882,38.9798356621092,5.88638092765625,Adola,ETH
218,-3.867,6.109,-3.86314504402345,6.10549123015626,Adzope,CIV
221,1.634,6.493,1.61769354117187,6.49736858496093,Afagnagan,TGO
222,5.294,7.706,5.29674263792969,7.71167812589841,Afao,NGA
223,-3.953,6.322,-3.95390930113282,6.32074294156252,Affery,CIV
224,45.118,2.141,45.1212877014452,2.13615633964845,Afgooye,SOM
225,7.94,5.871,7.93749997671877,5.88321993074221,Afikpo,NGA
227,2.097,34.114,2.10516235999999,34.1070725075781,Aflou,DZA
229,-0.999,6.354,-0.997606133789058,6.33955679906251,Afosu,GHA
231,6.376,7.291,6.37769427683593,7.29086468046875,Afukpilla/Kominio,NGA
232,6.041,6.973,6.04242125742187,6.96906566789063,Afuze,NGA
233,31.292,30.945,31.2900150651172,30.9416972600781,Aga,EGY
234,7.978,16.966,7.9889220046875,16.9716035878515,Agadez,NER
236,6.323,9.006,6.31800781382811,9.00888031710939,Agaie,NGA
237,10.521,34.745,10.5243719132032,34.7412159914063,Agareb,TUN
238,39.824,7.271,39.8234777062891,7.26836705039061,Agarfa,ETH
239,36.579,7.844,36.5849180365626,7.85275400527341,Agaro,ETH
241,3.421,8.503,3.42147116503905,8.50273969195311,Agaw Are,NGA
242,5.524,7.587,5.5241192584375,7.58760704171877,Agbado,NGA
243,1.982,7.083,1.96940281789063,7.07499134863281,Agbangnizoun,BEN
248,3.292,7.075,3.28917309203125,7.06723989230468,Agbon/Obada,NGA
249,6.203,6.239,6.19648192246093,6.25975497285159,Agbor,NGA
250,-4.212,5.926,-4.22260015996094,5.92960231550779,Agboville,CIV
251,2.273,6.925,2.27120904757812,6.92578433746092,Agbozounkpa,BEN
253,2.958,6.486,2.95648565027343,6.49132465609378,Age Mowo,NGA
255,37.966,8.151,38.0065902373436,8.13595939457031,Agena,ETH
256,6.69,7.103,6.6960880031641,7.10613051664063,Agenebode,NGA
260,-13.657,15.99,-13.6636117366406,15.9948698529688,Agnam Thiodaye,SEN
261,-3.205,7.136,-3.20438333035157,7.13185647324219,Agnibilekrou,CIV
262,3.644,8.626,3.64380337738282,8.62764803488279,Ago Amadu,NGA
263,4.329,7.249,4.33013293261717,7.24912520117188,Ago Awu,NGA
264,2.74,6.538,2.78097103410158,6.52621907968749,Ago Egun,NGA
265,-1.089,6.795,-1.08328881710937,6.80093746257815,Agogo,GHA
266,2.229,6.846,2.23107339734373,6.85539814015629,Agon,BEN
267,-1.483,6.928,-1.49124520429687,6.93346905085939,Agona,GHA
268,-0.635,5.597,-0.6326302925,5.5973993463672,Agona Kwanyako,GHA
269,-1.964,4.884,-1.96765190597657,4.88979750503908,Agona nkwanta,GHA
270,-0.751,5.645,-0.751058853320309,5.64414864324219,Agona Nsaba,GHA
271,-0.788,5.609,-0.787228241523435,5.60985415921876,Agona Nyakrom,GHA
272,-0.698,5.531,-0.700334623164063,5.53739876472658,Agona Swedru,GHA
276,8.853,8.318,8.849583655,8.31597463714844,Aguatashi,NGA
278,7.779,13.503,7.77673252273439,13.5025653960156,Aguie,NER
280,4.359,10.522,4.35903139054687,10.5225637596093,Agumu Koshi,NGA
281,6.92,4.983,6.91873093394528,4.98339663562499,Agwa,NGA
282,4.58,10.708,4.58029820687502,10.7058268487109,Agwrra,NGA
283,3.505,8.586,3.5028945788672,8.58453315300783,Aha,NGA
284,7.534,5.733,7.55973149136717,5.72209766570311,Ahaba,NGA
285,1.392,6.608,1.37372101988281,6.62371320644532,Ahepe,TGO
287,-2.103,34.959,-2.09950909226564,34.9746843637108,Ahfir,MAR
288,-3.38,5.408,-3.37806716664061,5.40746855554688,Ahigbe-Koffikro,CIV
289,34.274,12.411,34.276143186953,12.4062877620703,Ahmar Mawjy,SDN
290,6.13,36.391,6.13023277566406,36.3913449476955,Ahmed Rachedi,DZA
291,2.565,36.471,2.5660203609375,36.4749708910939,Ahmer El Ain,DZA
292,30.944,29.084,30.9438224428908,29.088870894453,Ahnasya,EGY
293,31.021,29.093,31.0203858399608,29.0930395660546,Ahnasya al-Khadra,EGY
294,6.649,5.083,6.65215142421875,5.08215876964845,Ahoada,NGA
296,31.008,29.036,31.0030788095312,29.0446143001174,Ahwa,EGY
298,7.334,12.262,7.33280783289059,12.2615897157813,Aidu,NGA
300,6.432,36.745,6.43250671812502,36.7473509310158,Ain  Kechera,DZA
301,6.943,36.233,6.94602859542971,36.2311734189062,Ain Abid,DZA
302,5.316,36.173,5.31353965156249,36.1878997275783,Ain Arnat,DZA
304,5.518,35.819,5.51892719738283,35.8184288748045,Ain Azel,DZA
305,7.191,35.938,7.18825512601566,35.9409744126956,Ain Babouche,DZA
306,7.384,35.791,7.3908774211328,35.7943459987502,Ain Beida,DZA
309,5.902,36.398,5.89014657605471,36.3948142139844,Ain Beida Harriche,DZA
310,3.674,36.291,3.67471627371095,36.293199518906,Ain Bessem,DZA
312,3.15,35.89,3.15760697140623,35.8911721170311,Ain Boucif,DZA
313,7.223,36.733,7.21894677246095,36.7283987814843,Ain Charchar,DZA
314,1.867,36.215,1.95517874781249,36.2532711138669,Ain Defla,DZA
315,1.55,34.842,1.5468549709375,34.840968679375,Ain Deheb,DZA
316,6.003,35.86,6.00033389382816,35.861014020547,Ain Djasser,DZA
319,-0.88,35.405,-0.882413657851559,35.4045664351954,Ain El Arbaa,DZA
320,8.38,36.785,8.38167523906246,36.7854873879686,Ain El Assel,DZA
321,-0.513,35.368,-0.512712338632814,35.367339759336,Ain El Berd,DZA
323,0.881,35.061,0.885140227460941,35.0553083636719,Ain El Hadid,DZA
324,0.154,34.761,0.146159997578125,34.7586544896483,Ain El Hadjar,DZA
325,5.51,35.904,5.54226892929689,35.9383172112111,Ain El Hadjar,DZA
326,3.886,35.667,3.88468062574218,35.6745257753515,Ain El Hadjel,DZA
327,4.341,36.608,4.26611251570312,36.6877988758597,Ain El Hammam,DZA
329,5.513,36.36,5.50409729648436,36.367006941601304,Ain El Kebira,DZA
330,4.155,34.848,4.17296554769533,34.8388288183593,Ain El Melh,DZA
331,4.094,34.678,4.09663859328126,34.6814831381247,Ain Errich,DZA
332,6.871,35.976,6.87150610386716,35.9694992332422,Ain Fakroun,DZA
333,-0.006,35.224,-0.00731034917968753,35.2237939404689,Ain Fekan,DZA
334,3.587,35.431,3.58047927859374,35.4256622517188,Ain Fekka,DZA
336,6.689,35.926,6.70072763464841,35.9223624414844,Ain Kercha,DZA
337,1.108,34.908,1.11098249292969,34.9095449775391,Ain Kermes,DZA
338,4.98,35.546,4.97194851156248,35.540760050547,Ain Khadra,DZA
339,2.412,36.153,2.405486620625,36.1575136374999,Ain Lechiakh,DZA
340,3.128,34.805,3.12898716828127,34.8038666020311,Ain Maabed,DZA
341,7.249,36.243,7.24944730011718,36.2435958190232,Ain Makhlouf,DZA
342,0.973,36.162,0.973975680624998,36.1609587859764,Ain Merane,DZA
343,6.565,36.04,6.57022918746094,36.0350932228125,Ain M'Lila,DZA
344,0.049,35.802,0.0429725548437499,35.8063246279295,Ain Nouissy,DZA
345,4.092,34.991,4.09283492656251,34.9913916375002,Ain Oghrab,DZA
346,5.299,35.902,5.29797755851565,35.9255492894923,Ain Oulmene,DZA
347,2.897,35.449,2.90120809667969,35.4405861242968,Ain Oussera,DZA
348,-0.588,32.757,-0.579967426484372,32.7600675133201,Ain Sefra,DZA
350,6.5,36.265,6.50171202847655,36.2691639450779,Ain Smara,DZA
351,0.297,35.993,0.296032276640624,35.9973647777343,Ain Tadles,DZA
353,1.131,35.78,1.13016209851562,35.7812059863672,Ain Tarek,DZA
355,-1.139,35.302,-1.14969263621094,35.3049092408592,Ain Temouchent,DZA
356,-1.257,35.254,-1.26260213601563,35.2626197641017,Ain Tolba,DZA
357,7.464,35.44,7.46462478910157,35.4435733091407,Ain Touila,DZA
358,5.898,35.377,5.90087654656251,35.3764498150389,Ain Touta,DZA
359,-0.779,35.75,-0.750556307460939,35.7344652388672,Ain Turk,DZA
360,-1.375,35.048,-1.37538871617188,35.0480670417969,Ain Youcef,DZA
363,5.484,7.603,5.48392901605469,7.6014867301172,Aisegba,NGA
365,3.97,36.529,3.9566415120703,36.5400525926951,Ait Hidja,DZA
370,8.022,7.475,8.05787439140633,7.47207968058593,Aiye/Ankpa,NGA
371,5.333,7.889,5.33273452238284,7.89506758792967,Aiyede,NGA
372,4.387,8.314,4.38432581984374,8.31365472753908,Aiyede,NGA
374,4.636,7.262,4.63461862273439,7.26263227402346,Aiyepe,NGA
375,3.738,6.803,3.73762588605469,6.80404473183594,Aiyepe Odo,NGA
376,3.224,7.55,3.22962180351561,7.56320427445309,Aiyete,NGA
377,3.03,7.239,3.02774199238281,7.24150472535155,Aiyetoro,NGA
378,5.987,7.997,5.99168383996093,7.9816072867578,Aiyetoro Gbede,NGA
379,-2.449,5.032,-2.46781918660157,5.04529307453124,Aiyinase,GHA
380,4.923,6.422,4.92299610624998,6.42396392386717,Ajagba,NGA
381,6.681,7.529,6.64474186726563,7.56273550261721,Ajaokuta,NGA
382,4.813,8.248,4.81084620089842,8.24392144250001,Ajasse Ipo,NGA
385,38.355,7.303,38.3566663911329,7.29762526425782,Aje,ETH
386,39.24,11.242,39.2433308687889,11.2371228266797,Ajebar,ETH
387,3.085,6.587,3.08530085289063,6.58363062171873,Ajerogun,NGA
388,38.768,11.035,38.7697115582029,11.0353676390625,Ajibar,ETH
389,2.929,6.702,2.9283224217578,6.7019551859375,Ajilete,NGA
390,9.037,11.966,9.03629513332035,11.9685609596876,Ajingi,NGA
391,7.673,5.914,7.67562308703127,5.91727090824218,Aka Ese,NGA
392,6.253,4.913,6.24528802433594,4.92697723300783,Akaba/Fange/Ogu,NGA
393,6.639,5.228,6.64355871218749,5.23489878472654,Akabuka,NGA
399,0.797,6.123,0.798322571484377,6.13068551328124,Akatsi,GHA
400,4.532,36.457,4.53668413597655,36.4548615700779,Akbou,DZA
401,39.173,10.881,39.1786566883591,10.8683562189844,Akesta,ETH
402,23.782,2.742,23.7829678202735,2.73856663300782,Aketi,COD
403,31.66,26.652,31.714962599375,26.5594080397656,Akhmim,EGY
404,31.312,30.842,31.3123977049999,30.8424803014062,Akhtab,EGY
405,-0.994,5.833,-0.997023932968756,5.83617108558592,Akim Achiase,GHA
406,-0.766,5.773,-0.767104023710936,5.77161442703126,Akim Akroso,GHA
407,-0.937,5.925,-0.934919091875,5.92390953437499,Akim Asene,GHA
408,-0.88,5.908,-0.887268630429692,5.90493543019531,Akim Manso,GHA
409,-0.984,5.921,-0.994657822304691,5.92284749023435,Akim Oda,GHA
410,-1.016,5.885,-1.01531459957032,5.89406963929689,Akim Swedru,GHA
411,-14.385,19.743,-14.385106678125,19.7450030618361,Akjoujt,MRT
412,31.497,30.758,31.498204566211,30.7608506926952,Akkrash,EGY
413,1.705,6.342,1.71174536996095,6.33674571542969,Aklakou,TGO
414,-0.889,6.467,-0.893202824453125,6.4682660488281,Akoase,GHA
415,7.339,18.712,7.3390602619922,18.7109514726563,Akokan,NER
416,-1.97,7.411,-1.95692159460938,7.39751742382812,Akomadan,GHA
418,37.882,15.544,37.8862297945315,15.5495594017969,Akordat,ERI
419,0.035,6.265,0.0399895260546875,6.27002256628906,Akosombo,GHA
421,-3.889,6.386,-3.88392674570312,6.37899464945314,Akoupe,CIV
425,7.329,6.704,7.32686462335937,6.70352333597657,Aku,NGA
426,5.733,7.458,5.73580815355469,7.47368168949222,Akungba,NGA
427,5.202,7.245,5.19640690613283,7.24867213343748,Akure,NGA
429,8.41,8.915,8.40675083042962,8.91012047371091,Akwanga,NGA
430,-0.798,6.046,-0.809612741132813,6.03909538308593,Akwatia,GHA
431,7.355,4.891,7.35614074250002,4.88697088296877,Akwete,NGA
432,31.877,30.743,31.8753952818361,30.7415164133204,Akyad al-Bahriyya,EGY
436,38.091,7.315,38.0853443067578,7.31215069597656,Alaba Kulito,ETH
437,26.581,-26.869,26.5847991033593,-26.8708879830469,Alabama,ZAF
438,6.063,5.339,6.04843014585938,5.32924522265626,Alabanisi,NGA
439,31.302,12.166,31.3025983936719,12.1637885158594,al-Abasiya,SDN
443,30.813,28.585,30.8142152267188,28.5848587408595,al-Abbasiyya al-Gadida,EGY
445,32.597,25.236,32.5950220057812,25.2359965105078,al-Adayma,EGY
447,5.1,7.144,5.09819267351562,7.14334745394531,Alade,NGA
449,4.149,8.048,4.14876934988279,8.04745968128909,Alagbayun,NGA
450,30.72,29.342,30.7209343390625,29.3401405962499,al-Agmiyyin,EGY
455,31.314,30.336,31.3089482899219,30.3393864046486,al-Ahraz,EGY
457,47.422,-18.941,47.4239233637108,-18.9388862004297,Alakamisy Fenoarivo,MDG
461,31.647,30.618,31.6372891601562,30.6254524217968,al-Alaqima,EGY
467,31.096,30.992,31.1009277826172,31.0027722707423,al-Amriyya,EGY
468,31.109,30.787,31.0883827865234,30.7840744996093,al-Anbutin,EGY
469,30.779,27.371,30.7814908459376,27.3784473760547,al-Ansar,EGY
470,30.913,31.26,30.9199509462109,31.264627982578,al-Aqula,EGY
473,32.161,26.009,32.1615254368752,26.006020640703,al-Arki,EGY
479,30.796,27.78,30.804623129453,27.7749373395703,al-Ashmunin,EGY
481,32.763,26.11,32.7637181346874,26.1113722854687,al-Ashraf al-Qibliyya,EGY
485,30.733,29.279,30.733372976328,29.2781934201172,al-Atamna & al-Mazara,EGY
487,32.501,26.162,32.5289224520314,26.1735744163672,al-Attiyat,EGY
488,30.914,31.006,30.9268019564844,31.0127148540235,al-Atwa al-Qibliyya,EGY
489,32.07,26.182,32.0813670097659,26.188148659297,al-Awamir & Bani Birza,EGY
490,31.853,26.307,31.8550877254688,26.3152149089844,al-Awamir Bahri,EGY
491,31.59,30.627,31.5772224225,30.6323909951171,al-Awasiga,EGY
492,30.733,28.289,30.7276000328125,28.2979685641407,al-Awaysa,EGY
496,5.368,7.261,5.37148600757815,7.26121409714846,Alayere,NGA
497,31.267,29.644,31.2780222040234,29.6518323550391,al-Ayyat,EGY
500,31.29,30.49,31.2917011129687,30.4928502370702,al-Aziziyya,EGY
501,31.05,29.431,31.0529192214452,29.4313411264843,al-Aziziyya,EGY
504,31.46,26.973,31.443039373164,26.9820485304297,al-Badari,EGY
506,30.736,27.7,30.7344740641796,27.6990500737891,al-Badriman,EGY
507,31.626,31.166,31.626462758086,31.1644740164452,al-Bagalat,EGY
509,30.563,30.936,30.5599732977344,30.9210413991015,al-Bahiy,EGY
510,30.666,28.534,30.6611078246875,28.5341168678515,al-Bahnasa al-Gharbiyya & Kafr al-Mansura,EGY
511,32.744,25.844,32.7545290530473,25.8349988832813,al-Bahri Qamula,EGY
516,31.435,30.82,31.436454656914,30.8192907875391,al-Balamun,EGY
517,31.44,30.421,31.4380354622656,30.4334520758203,al-Balashun,EGY
521,31.075,31.08,31.074133309414,31.0794118100392,al-Banawan,EGY
522,31.125,30.821,31.1250613322657,30.8240830239062,al-Bandara,EGY
523,31.42,30.96,31.4193238289843,30.9569325617968,al-Baqliyya,EGY
526,32.814,25.994,32.8188622753904,26.0010958504687,al-Barahma,EGY
527,31.444,31.12,31.4444711501171,31.1221107465624,al-Baramun,EGY
528,31.024,28.985,31.0114010293359,28.9875993159376,al-Baranqa,EGY
531,31.033,30.227,31.0293132612109,30.2199801514063,al-Barraniyya,EGY
532,33.488,11.728,33.4902435707421,11.7181033454687,al-Barun/Hillat al-Mak/Shaykh Idr,SDN
533,32.736,25.122,32.7262350888281,25.1354979502733,al-Basaliyya Bahri,EGY
534,32.793,25.104,32.7919815758593,25.104428399414,al-Basaliyya Qibli,EGY
536,30.739,28.704,30.7385456825001,28.7026818529687,al-Basqalun,EGY
537,9.141,11.674,9.14064027042969,11.6741909880468,Albasu,NGA
539,30.982,30.615,30.9851622121876,30.6151250009766,al-Batanun & Hisatha,EGY
540,33.887,18.264,33.896192539062604,18.2492575013672,al-Bawgah,SDN
541,28.874,28.346,28.8623033003906,28.3482630297265,al-Bawiti,EGY
543,31.574,30.957,31.5622087713672,30.9449073923047,al-Bayda & Kafr Muhammad Shahin,EGY
546,32.637,25.666,32.637083236992,25.6648304286328,al-Bayyaddiyya,EGY
548,22.365,2.216,22.361591604961,2.21066788449218,Alberta,COD
549,30.734,28.264,30.7338210629296,28.2647393187109,al-Bihu,EGY
550,31.936,26.197,31.864265413164,26.2355700715233,al-Bilina,EGY
553,30.734,28.16,30.7346845380858,28.1571280086329,al-Birgaya,EGY
554,31.246,29.305,31.2531723723438,29.3116523639062,al-Birimbil,EGY
555,30.906,27.745,30.8924611080469,27.7273147888672,al-Birsha,EGY
558,32.642,25.643,32.6432819462499,25.6436834760546,al-Bughdadi,EGY
561,31.076,31.561,31.0951022358595,31.5561912491406,al-Burg,EGY
562,30.47,30.769,30.4565092820312,30.7754907903905,al-Bustan,EGY
566,30.767,30.854,30.7347666626563,30.8611627708203,al-Dahriyya,EGY
567,31.613,31.228,31.6194079784767,31.2235396670312,al-Dahriyya,EGY
568,31.724,30.543,31.717830920625,30.5343087725391,al-Dahriyya,EGY
569,31.708,30.683,31.706931717422,30.6803280088671,al-Dahtamun,EGY
570,29.645,12.047,29.6501545670313,12.0449396189063,al-Dalanj,SDN
572,34.35,11.806,34.3493438355076,11.7959776061719,al-Damazin,SDN
573,33.978,17.595,33.9735896662499,17.5954682335156,al-Damir,SDN
574,33.932,17.548,33.9271901691016,17.5395754320312,al-Damir I,SDN
575,31.447,31.052,31.4478148535547,31.0522470790235,al-Danabiq,EGY
578,31.052,29.044,31.0608195177734,29.0539980274999,al-Dawiyya,EGY
580,30.589,30.862,30.5372195813281,30.8280204663672,al-Dilingat,EGY
581,34.091,13.332,34.0907806535158,13.3309465449609,al-Dindir,SDN
582,32.585,25.332,32.5842820128905,25.3359525328514,al-Dir,EGY
583,31.274,30.334,31.2739599895702,30.3365570911327,al-Dir,EGY
584,32.756,26.069,32.7549571882422,26.0703772500781,al-Dir al-Sharqi,EGY
585,31.287,29.496,31.2761634165625,29.4904986475001,al-Dismi,EGY
588,32.301,14.005,32.3170152400391,13.9966656207812,al-Duwaym,SDN
591,-13.911,17.053,-13.9142863827344,17.0523571810937,Aleg,MRT
592,38.177,7.579,38.1774613652736,7.56700875820312,Alem Gebeya,ETH
593,38.994,10.059,38.9936564671484,10.059827350039,Alem Ketema,ETH
594,38.948,8.299,38.9481340378516,8.29894790234376,Alem Tena,ETH
597,29.797,31.125,29.7644697549609,31.097974764961,Alexandria,EGY
598,31.067,29.451,31.0790423042577,29.4653183626954,al-Fahmiyya,EGY
600,30.879,28.753,30.8801681629296,28.7543917415233,al-Fant,EGY
601,30.874,28.784,30.869516334375,28.7875143535547,al-Fant al-Gharbiyya,EGY
602,34.091,14.111,34.091954033242,14.10680407625,al-Fao,SDN
603,30.781,30.91,30.7814670052733,30.9104302857031,al-Farastaq,EGY
605,35.863,14.398,35.8647131159377,14.3973171521093,al-Fashaqah (Shuwak),SDN
607,30.903,28.831,30.9002964725782,28.8258208498437,al-Fashn,EGY
608,30.842,29.32,30.8075810544922,29.3593656012892,al-Fayyum,EGY
609,30.819,27.924,30.8198617900781,27.9339142609767,al-Fikriyya,EGY
618,30.417,31.363,30.4257663494141,31.3716165257033,al-Gadiyya,EGY
625,30.718,28.593,30.716621233164,28.5927921275391,al-Garnus,EGY
630,30.419,31.441,30.3863348209375,31.4503109381251,al-Gazira al-Khadra,EGY
631,3.036,36.681,3.40320451714843,36.7534551704295,Alger,DZA
632,32.369,14.865,32.3684965676952,14.8635870033594,al-Geteina,SDN
633,32.615,13.306,32.6105922416014,13.3147922576953,al-Gezira Aba,SDN
638,30.692,29.137,30.6915469826171,29.1378109903906,al-Gharaq al-Sultani,EGY
640,32.268,26.058,32.2743946126952,26.0372009789062,al-Gharbi bil-Salamiyya,EGY
641,33.824,27.175,33.8189877525002,27.2510624295701,al-Ghardaqa,EGY
642,31.269,30.663,31.2685606375,30.6619773102735,al-Gharib,EGY
648,35.92,13.714,35.9202712154296,13.7144200846094,al-Giraishah,SDN
650,30.642,18.493,30.6340008710937,18.5070316510157,al-Goled,SDN
651,30.78,28.824,30.7811945176954,28.8197374314062,al-Gumhud,EGY
654,31.507,30.421,31.5073436514061,30.4219110367969,al-Gusaq,EGY
655,30.767,27.425,30.7624676620313,27.4285274276562,al-Habalsa,EGY
656,32.662,25.669,32.6753623623433,25.6732371779689,al-Habil,EGY
657,30.863,30.887,30.8624687029296,30.88793163375,al-Haddad,EGY
658,30.631,30.735,30.6310676966015,30.7358851462111,al-Haddin,EGY
660,31.536,31.443,31.5489227507814,31.4370043632031,al-Hafir & al-Amal,EGY
661,30.88,27.63,30.8808588846874,27.6280862597656,al-Hag Qandil,EGY
662,30.648,29.132,30.6467320270703,29.1309097017188,al-Hagar,EGY
663,30.495,30.888,30.4778781881641,30.8961115847265,al-Hagar al-Mahruq,EGY
665,31.59,30.852,31.5932321891798,30.8514342857812,al-Hagayza,EGY
668,32.586,25.281,32.5952561842187,25.2660336942187,al-Hala,EGY
670,31.557,30.705,31.5570468856249,30.7043047063281,al-Halawat,EGY
671,32.58,25.399,32.5771489241796,25.3987413358202,al-Hamidat,EGY
672,30.441,31.333,30.4424693239453,31.3336849051954,al-Hammad,EGY
673,31.897,30.797,31.9095192741797,30.7895155648828,al-Hammadiyyin,EGY
674,29.465,30.86,29.3904133993359,30.8424066089844,al-Hammam,EGY
676,30.868,31.168,30.8654553835937,31.1687534722267,al-Hamra,EGY
677,31.165,31.32,31.1479738241798,31.3118721673437,al-Hamul,EGY
678,30.616,29.284,30.6151051588283,29.2869895889843,al-Hamuli,EGY
685,32.121,26.109,32.1193608139061,26.1100436525782,al-Hasanat,EGY
689,34.636,13.414,34.6278703389453,13.4163687858593,al-Hawata,SDN
691,30.875,27.603,30.8661111666406,27.6052790034766,al-Hawata al-Sharqiyya,EGY
696,31.765,30.653,31.7628126136718,30.6555166258983,al-Haysamiyya,EGY
697,30.922,28.816,30.9211496532422,28.7972838883203,al-Hiba,EGY
698,31.831,30.657,31.8304064808594,30.6573235126561,al-Higagiyya al-Mustagadda,EGY
699,32.774,25.144,32.7801578657811,25.1355581259766,al-Higz Bahri,EGY
700,33.24,14.94,33.2345618164844,14.9404746866016,al-Hilalia TC,SDN
708,32.925,14.544,32.924751028242,14.5453625867188,al-Huda,SDN
709,32.552,26.17,32.5619046940628,26.1599703733593,al-Hugayrat,EGY
711,31.917,30.859,31.9227130879688,30.8623938040625,al-Husayniya,EGY
714,36.577,15.099,36.5784944717971,15.1145987148828,Ali Ghdir,ERI
715,42.705,11.153,42.7072307422266,11.1507192288282,Ali Sabieh,DJI
716,10.049,37.156,10.0342512249609,37.1685101041014,Alia,TUN
717,8.484,7.302,8.48423376667965,7.29479316382813,Aliade,NGA
718,27.329,11.283,27.3278491737499,11.2835517858985,al-Ibbun,SDN
719,31.562,30.717,31.5612056399219,30.7194032633202,al-Ibrahimiya,EGY
722,30.779,28.691,30.7666517972656,28.6984639138281,al-Idwa,EGY
723,30.902,29.343,30.9176332592187,29.3464503313281,al-Idwa,EGY
725,4.467,12.293,4.46226689484375,12.2922605682421,Aliero,NGA
728,31.966,30.811,31.9670734380468,30.8077186110156,al-Ikhiwa,EGY
730,21.214,5.039,21.2108851635547,5.04053160980468,Alindao,CAF
733,31.712,30.489,31.7287092945312,30.5017881679688,al-Iraqy,EGY
734,32.273,30.596,32.2654403718361,30.6076365744139,al-Ismailiyya,EGY
735,31.517,31.23,31.5167853251562,31.2280565057813,al-Iyadiyya,EGY
737,8.538,8.708,8.53977935191407,8.71100321785156,Alizaga,NGA
744,32.584,15.874,32.5743637492578,15.889648759375,al-Kabashi,SDN
746,31.591,30.45,31.581396198125,30.4554571840623,al-Kafr al-Qadim,EGY
748,10.333,10.268,10.3329028134766,10.2671596148828,Alkaleri,NGA
750,32.847,25.084,32.8454998546876,25.0882681690234,al-Kalh Sharq,EGY
754,5.395,13.167,5.39523275406253,13.1662635203515,Alkamu,NGA
755,30.211,31.185,30.2069004151171,31.1885214531249,al-Kanayis,EGY
756,30.852,27.95,30.8526775210937,27.9496948141797,al-Karam,EGY
758,31.226,29.293,31.2245905947657,29.2889245851563,al-Karimat,EGY
759,32.022,26.099,32.0344585287891,26.0884934430079,al-Karnak,EGY
761,31.722,31.232,31.7501749151173,31.2262930185547,al-Kashif al-Gadida,EGY
764,38.235,7.921,38.2369016324218,7.91643884468749,Alkeso,ETH
765,31.038,31.173,31.0395605479298,31.1704833058202,al-Khadimiyya,EGY
767,32.397,15.795,32.4259065829688,15.8057304879688,al-Khalas,SDN
769,30.568,18.577,30.5742280474219,18.5724395326171,al-Khandaq,SDN
772,32.727,25.92,32.7273102441798,25.9198099712891,al-Khatara,EGY
774,31.387,27.084,31.3844262610548,27.0880799193749,al-Khawalid,EGY
779,31.422,31.089,31.4187819204297,31.0809422531641,al-Khiyariyya,EGY
782,31.221,29.333,31.2193738288672,29.329584938711,al-Khurman,EGY
784,31.221,29.434,31.2723180597266,29.4652893666796,al-Kidaya,EGY
785,32.944,14.348,32.9451023721875,14.3488975973047,al-Kirimit,SDN
790,31.088,31.196,31.0878359037891,31.1995253978907,al-Kum al-Tawil,EGY
794,2.143,6.67,2.15187297796874,6.66360893742188,Allada,BEN
797,28.908,-25.117,28.9079500259766,-25.1131104797657,Allemansdrift C,ZAF
798,7.241,7.318,7.23844607624999,7.31971451925779,Allomo,NGA
799,31.012,27.347,31.022203432461,27.3382331632812,al-Maabda al-Sharqiyya,EGY
803,32.737,25.734,32.737935766797,25.7352406291797,al-Madamud,EGY
807,30.671,31.092,30.673623763125,31.0971532120702,al-Magd,EGY
810,32.103,26.181,32.1055238105469,26.1834561190626,al-Maharza,EGY
811,29.933,30.914,29.951746298047,30.9212792127343,al-Mahdiyya,EGY
813,31.706,31.075,31.7049369337891,31.0744983213281,al-Mahmudiyya,EGY
816,30.807,27.827,30.7957642980469,27.8264282796484,al-Mahras,EGY
817,32.765,26.025,32.7676452286328,26.0220040666797,al-Mahrusa,EGY
818,33.995,17.929,33.9900222645704,17.9135214490625,al-Makaylab,SDN
820,32.986,14.243,32.987539048242,14.2510361247266,al-Manaqil,SDN
824,30.677,31.246,30.6783005995313,31.2193192498047,al-Mandura,EGY
827,32.947,24.694,32.9426724776563,24.7359764341797,al-Manshiyya al-Gadida,EGY
829,31.289,31,31.4014008753517,31.0471206039845,al-Mansura,EGY
831,31.888,31.171,31.6490499836328,31.1233065585547,al-Manzala,EGY
832,31.256,30.334,31.2504672951561,30.3266470732422,al-Manzala,EGY
834,30.525,30.703,30.5231492658594,30.7072323205077,al-Maraka,EGY
842,30.988,29.062,30.9889128760937,29.0618616770311,al-Masid al-Abyad,EGY
844,32.825,15.321,32.8514493564063,15.3193769413281,al-Masodya II,SDN
846,33.358,16.719,33.3580975293359,16.710751410234302,al-Matamma,SDN
847,31.249,29.578,31.2533632407422,29.567393661875,al-Matanya,EGY
848,32.03,31.18,32.0299040058201,31.1811781280468,al-Matariyya,EGY
849,31.32,27.133,31.3241937900391,27.1199025315625,al-Matmar,EGY
853,31.198,29.24,31.1925410304298,29.2377527767188,al-Maymun,EGY
855,33.542,12.27,33.5369821438281,12.2703194790234,al-Mazmun,SDN
865,31.095,31.029,31.0941161213672,31.0261835016016,al-Mitimdiyya,EGY
866,32.785,16.402,32.7945468825784,16.41024608875,al-Mrewa,SDN
867,31.486,30.7,31.4865350985548,30.6995463774608,al-Mugafif,EGY
869,27.755,11.033,27.7523145514063,11.0339309207031,al-Mujlad,SDN
870,32.001,30.862,32.006311841914,30.8671552349999,al-Munaga al-Kubra,EGY
871,31.396,30.315,31.3957566850781,30.315959153086,al-Munayyar,EGY
873,31.557,30.895,31.5604542787501,30.8939104977345,al-Muqata,EGY
874,30.849,27.987,30.8536070605077,27.9802079024219,al-Mutahra al-Qibliyya,EGY
879,31.835,30.859,31.8317535728906,30.8590096573438,al-Nahhasin,EGY
880,32.583,16,32.5776833014063,15.9842220508984,al-Naiya,SDN
884,31.859,30.906,31.8708492440235,30.9298184662498,al-Nasiriyya,EGY
886,30.683,29.339,30.6878803823047,29.3423206035937,al-Nasriyya,EGY
887,30.847,28.539,30.8467597961328,28.5451799398049,al-Nasriyya,EGY
888,31.011,29.354,31.0195431080858,29.3597548693749,al-Nasriyya,EGY
889,30.804,27.603,30.8031975245313,27.6018940971093,al-Nasriyya,EGY
892,31.223,29.517,31.2233549510937,29.5183762000782,al-Nasriyya (al-Muarqab),EGY
893,31.771,30.836,31.7756489501561,30.8236255832812,al-Nawafia,EGY
894,31.521,26.836,31.523776413711,26.8528486193359,al-Nawawra,EGY
895,30.741,31.232,30.7419513540625,31.2338827700391,al-Nawayga,EGY
896,30.65,29.31,30.6513948346094,29.3038104387109,al-Nazla,EGY
899,32.185,26.024,32.1811885369532,26.0278201149609,al-Nugu,EGY
902,30.967,29.107,30.9788866353907,29.101593014336,al-Nuwira,EGY
903,31.663,31.179,31.6711781897267,31.1633877343359,al-Nuzul,EGY
905,33.761,17.187,33.7587101160939,17.2030765695701,al-Qabati,SDN
907,35.366,14.035,35.3697862914845,14.030911545586,al-Qadarif,SDN
912,32.613,26.186,32.6126845223048,26.1870434977344,al-Qanawiyya,EGY
913,32.295,26.039,32.2922816546094,26.0414107179296,al-Qanawiyya al-Bahriyya,EGY
915,32.307,30.843,32.3070100972653,30.8543476225001,al-Qantara Gharb,EGY
916,32.324,30.865,32.3238896661329,30.8589270919922,al-Qantara Sharq,EGY
917,31.696,30.669,31.6859427541015,30.6671781746875,al-Qaramus,EGY
918,32.64,25.743,32.6345898654296,25.7365751214843,al-Qarna,EGY
924,31.883,30.546,31.9132870558985,30.551959480625,al-Qassasin al-Qadima,EGY
926,30.969,30.225,30.9711446669921,30.2225039619141,al-Qatta,EGY
931,32.726,25.786,32.7295169779296,25.7899097058593,al-Qibli Qamula,EGY
933,31.717,30.82,31.714647721914,30.8169087908203,al-Quda,EGY
934,31.82,26.478,31.8293689217188,26.5100781784767,al-Qula,EGY
936,31.741,30.617,31.7384390491797,30.6137760483203,al-Qurin,EGY
937,34.262,26.121,34.2796038091014,26.1047490835547,al-Qusir,EGY
938,30.827,27.47,30.821295442539,27.4403824701953,al-Qusiyya,EGY
941,28.51,-26.441,28.5091962113281,-26.4371223569142,Alra Park,ZAF
942,31.811,31.082,31.8112139625391,31.0832620409376,al-Rabia,EGY
943,32.912,24.969,32.9128924666016,24.9641872574609,al-Radisiyya Bahri,EGY
944,32.885,24.911,32.8847995508592,24.9071437489843,al-Radisiyya Qibli,EGY
945,31.047,30.834,31.0480956446094,30.8356168798438,al-Ragdiyya,EGY
947,31.357,30.629,31.3590307463282,30.6315811251563,al-Rahmaniyya,EGY
949,32.297,26.069,32.2955669755079,26.065111763164,al-Rahmaniyya Qibli,EGY
953,35.575,14.195,35.5757491377733,14.195497184414,al-Rawashida,SDN
957,31.569,31.412,31.5685136273046,31.4131414303515,al-Rikabiyya,EGY
958,31.144,30.599,31.1453948374218,30.5973046600781,al-Rimali,EGY
959,31.194,29.414,31.1943640863282,29.4164347787891,al-Riqqa al-Gharbiyya,EGY
961,30.944,31.253,30.9449015314453,31.2400395753906,al-Riyad,EGY
964,34.391,11.857,34.3873705732031,11.8672353860157,al-Roseires,SDN
966,30.987,29.434,30.9998910726172,29.4457947676172,al-Ruda,EGY
967,30.856,27.797,30.8611947028516,27.801071497422,al-Ruda,EGY
971,31.726,26.489,31.7239019233984,26.4925986425,al-Ruwayhab,EGY
974,32.822,25.069,32.8226210575782,25.0705878166797,al-Saayda,EGY
977,31.26,30.261,31.2952439180861,30.2563475927734,al-Sadd,EGY
979,31.301,29.574,31.2912911089063,29.5773723797265,al-Saf,EGY
980,30.391,31.011,30.3913993589064,31.011049598711,al-Safasif,EGY
1002,31.302,30.476,31.3017344053515,30.4751629678517,al-Sanafin al-Bahriyya,EGY
1003,31.302,30.451,31.2998107934376,30.4543287841797,al-Sanafin al-Qibliyya,EGY
1006,31.121,30.719,31.1471632155077,30.6856190426172,al-Santa,EGY
1007,32.288,15.593,32.2799382889844,15.5894256512109,al-Sanwa,SDN
1009,31.367,31.342,31.3670393017969,31.3438664985936,al-Satamuni,EGY
1010,31.61,30.545,31.6199195683984,30.5329596377343,al-Sawa,EGY
1019,35.984,14.765,35.9818363248827,14.7630693309375,al-Shagarab al-Shamali,SDN
1022,30.129,30.828,30.111871993789,30.8210835358984,al-Shahid 6 & Kum Umbu,EGY
1024,35.574,23.118,35.5622726481642,23.1075394495704,al-Shallatin,EGY
1025,31.056,31.132,31.058418162383,31.133526238125,al-Shamariqa,EGY
1028,33.455,14.592,33.4525850122656,14.5914246464062,al-Sharfa Barakat,SDN
1030,32.221,26.1,32.1915600286327,26.1147486733984,al-Sharqi Bahgura,EGY
1031,31.359,31.281,31.3591626051562,31.2840784477345,al-Shawami,EGY
1032,30.594,29.379,30.6161336189843,29.3994809121092,al-Shawashna,EGY
1033,32.32,26.051,32.3282184657422,26.064475333672,al-Shawriyya,EGY
1035,30.844,28.489,30.842974700547,28.4875969290235,al-Shaykh Fadl,EGY
1038,30.678,28.662,30.6804990599219,28.6549889009766,al-Shaykh Masud,EGY
1040,30.722,27.694,30.7323084895314,27.6996735580859,al-Shaykh Shibika,EGY
1044,32.791,25.97,32.789298830898304,25.9686264297656,al-Shaykhiyya,EGY
1045,30.898,31.019,30.8886058727343,31.0080691427344,al-Shin,EGY
1047,31.408,31.285,31.3974615742578,31.2938038682811,al-Shirka,EGY
1050,31.566,30.65,31.5543740819141,30.6573453860546,al-Shubrawin,EGY
1052,32.54,16.048,32.5375094790626,16.0629897417967,al-Shuhaynab,SDN
1053,30.45,30.966,30.4361317725781,30.9893216016796,al-Shuka,EGY
1054,31.258,30.442,31.2096743262891,30.4292828026563,al-Shumut,EGY
1056,31.211,31.291,31.2230714068358,31.2746245561719,al-Shutut,EGY
1057,32.7,25.18,32.6779932953125,25.1937098914062,al-Sibaiyya Gharb,EGY
1060,31.062,30.982,31.0638928308985,30.9766405676562,al-Sigaiyya,EGY
1062,31.46,30.867,31.4643748123047,30.8794868689062,al-Sinbillawin,EGY
1063,30.756,28.323,30.7666018255469,28.3252706885939,al-Sirariyya,EGY
1064,31.657,31.234,31.6537633837891,31.2386548382032,al-Sirw,EGY
1065,33.898,13.317,33.9005028466796,13.3077213549219,al-Soky,SDN
1066,32.141,14.478,32.1308854635547,14.4592123516016,al-Sufi,SDN
1067,31.811,30.889,31.8147481314063,30.8927396018361,al-Sufiyya,EGY
1069,29.798,12.508,29.8022242346094,12.5079353489453,al-Sulayk,SDN
1070,30.695,27.945,30.7014358700001,27.9489203097264,al-Sultan Hasan,EGY
1071,30.795,29.327,30.7888712560546,29.3218265452734,al-Sunbat,EGY
1072,32.528,15.899,32.5427380345706,15.9377422336328,al-Sururab West,SDN
1073,31.231,29.554,31.2312383755469,29.5558743735938,al-Suudiyya,EGY
1074,33.06,15.216,33.0541621116796,15.221583798125,al-Takayna,SDN
1075,31.779,30.554,31.7848927499219,30.5442579635546,al-Tal al-Kabir,EGY
1076,32.739,26.121,32.7342841292966,26.1076800019531,al-Taramisa,EGY
1078,30.151,31.267,30.1710905491796,31.2677268958203,al-Tarh,EGY
1079,30.868,27.313,30.8985422276564,27.2893067963672,al-Tataliyya,EGY
1080,30.616,30.788,30.619039158164,30.7913632795704,al-Tawd,EGY
1081,30.759,28.364,30.7589465978515,28.3643321478516,al-Tawfiqiyya,EGY
1083,31.389,31.119,31.3861708969922,31.1148261994141,al-Tawila,EGY
1085,31.739,30.655,31.73544684875,30.653445688086,al-Tawila,EGY
1086,30.668,28.294,30.6490191064844,28.2660734680078,al-Tayiba,EGY
1087,30.774,30.642,30.7901824919924,30.6535831218749,al-Tayriyya,EGY
1090,31.313,31.131,31.3123530866016,31.13260614875,al-Tiba,EGY
1093,30.808,27.397,30.8065503616406,27.3924949675,al-Timsahiyya,EGY
1095,14.467,-9.681,14.4675703585157,-9.68392790519534,Alto Dondo,AGO
1096,15.549,-12.225,15.5516747976953,-12.2258913548828,Alto Hama,AGO
1097,32.487,25.553,32.5528298433204,25.5871383108592,al-Tud,EGY
1099,30.572,30.959,30.531215692578,30.9669064724999,al-Uga,EGY
1102,32.659,25.724,32.6462624967579,25.6944866511719,al-Uqsur,EGY
1105,30.591,30.768,30.5926225676562,30.7663436981251,al-Wafaiyya,EGY
1106,30.638,29.265,30.6534235682031,29.2561670554688,al-Wanasya,EGY
1107,32.428,26.092,32.4233723858593,26.0853503072657,al-Waqf,EGY
1110,31.207,29.348,31.1715278655468,29.3730371309765,al-Wasta,EGY
1114,7.596,5.725,7.60695280804687,5.70844435058594,Alyi,NGA
1115,31.167,31.257,31.1675750223046,31.2579567559374,al-Zafaran,EGY
1120,31.443,30.568,31.4404347678515,30.5688785242578,al-Zankalun,EGY
1121,31.502,30.584,31.4957854125391,30.5941647240625,al-Zaqaziq,EGY
1127,31.159,29.176,31.1562830492188,29.1777136891407,al-Zaytun,EGY
1131,32.769,25.962,32.7713550926171,25.9827402167188,al-Zuwayda,EGY
1136,30.135,-31.055,30.1646666651561,-31.0695982795313,Amadiba,ZAF
1137,7.662,6.31,7.652435695,6.3037280358203,Amagunze,NGA
1141,-1.202,7.544,-1.20342717582032,7.54273530269529,Amanten,GHA
1142,37.566,10.442,37.5662366466404,10.4415458351563,Amanuel,ETH
1144,7.666,5.749,7.63836302582031,5.74050732449218,Amaokwe,NGA
1145,30.225,12.98,30.225634321328,12.9770887077734,Amara,SDN
1147,31.585,30.522,31.6114889046874,30.5137234759766,Amarit,EGY
1148,-0.623,35.14,-0.622780339140629,35.1269606367578,Amarnas,DZA
1149,7.882,5.915,7.88262710867187,5.91628030070309,Amaseri,NGA
1150,31.224,-24.751,31.201161656875,-24.7255250897658,Amashangana,ZAF
1151,6.113,4.973,6.11070004402344,4.97178888507811,Amassama,NGA
1153,7.39,5.994,7.40122690945315,5.9860594361328,Amawda,NGA
1154,37.625,12.77,37.623667428828,12.7679239407031,Amba Giyorgis,ETH
1155,46.94,-21.83,46.9343638904686,-21.8338718457032,Ambalavao,MDG
1157,48.451,-13.674,48.4550716082033,-13.6727633242968,Ambanja,MDG
1158,46.719,-16.471,46.7138698235938,-16.4727026211328,Ambato Ambarimay (A. Boina),MDG
1159,47.435,-19.389,47.4274575710938,-19.3858099609766,Ambatolampy,MDG
1160,47.429,-18.913,47.4356965555473,-18.9128654301562,Ambatomilona,MDG
1161,48.424,-17.826,48.4274976824607,-17.8236722967968,Ambatondrazaka,MDG
1162,37.84,10.248,37.8410728866017,10.2523934903124,Amber,ETH
1163,49.054,-13.194,49.0504355654296,-13.193836214375,Ambilobe,MDG
1164,37.885,8.969,37.8751335009377,8.98090630472661,Ambo,ETH
1165,46.387,-25.038,46.3834050998048,-25.0390401500782,Amboasary-Atsimo,MDG
1167,48.383,-17.404,48.3856568269144,-17.4078803568359,Ambohijanahary,MDG
1168,47.447,-18.866,47.4521354428126,-18.8659338753905,Ambohitrimanjaka,MDG
1170,47.244,-20.532,47.2457665326955,-20.5314336545703,Ambositra I,MDG
1171,46.091,-25.18,46.0870901010546,-25.1777837049999,Ambovombe,MDG
1172,13.108,-7.848,13.1061311585938,-7.84601230839843,Ambriz,AGO
1173,4.337,12.506,4.33781038074218,12.5092843199609,Ambursa,NGA
1174,37.884,11.914,37.883547741836,11.9132753865625,Amedber,ETH
1177,-3.571,6.825,-3.57527468687501,6.83135671359376,Amelekia,CIV
1179,30.891,29.33,30.8929761662499,29.3282239357031,Amiriyat al-Fayyum (al-Maslub),EGY
1181,4.905,36.646,4.9027710708203,36.6403944557423,Amizour,DZA
1183,30.691,30.895,30.7102667638281,30.8905745458203,Amlit,EGY
1184,1.109,35.869,1.10970967500001,35.8707761282031,Ammi Moussa,DZA
1186,7.856,5.804,7.85278519824222,5.81152324632811,Amoso,NGA
1187,5.431,36.34,5.43651655878908,36.3374090927734,Amoucha,DZA
1188,6.008,7.19,6.00406660464844,7.20338435273437,Amoya,NGA
1189,9.701,9.357,9.70095236906244,9.35515544089842,Amper,NGA
1190,30.751,27.595,30.7519530582423,27.5932200077735,Amshul,EGY
1195,7.196,9.06,7.19545902925782,9.05754470730471,Anagada,NGA
1196,7.175,9.039,7.17505207062501,9.0379998221484,Anagada,NGA
1198,46.719,-18.976,46.7177376862502,-18.9732664724609,Analavory,MDG
1199,-3.773,6.222,-3.77237478035157,6.22214883140623,Ananguie,CIV
1200,8.394,10.963,8.39297390257816,10.9607713617578,Anchau,NGA
1201,-6.787,7.487,-6.78771080660158,7.48713930210938,Ancien - Prozi,CIV
1202,8.405,9.056,8.40642036039066,9.0533983614844,Andaha,NGA
1203,24.806,-27.92,24.8135506875781,-27.9148003580468,Andalusia Park,ZAF
1204,49.648,-14.658,49.6520771216798,-14.6633136192187,Andapa,MDG
1205,-4.085,6.784,-4.08579684328125,6.7824096378906,Ande,CIV
1206,48.575,-17.011,48.571742959336,-17.0128529345313,Andilamena,MDG
1208,21.367,-7.681,21.3580199033594,-7.69483482281249,Andrada,AGO
1210,1.656,6.245,1.63309198242187,6.23778197136719,Aneho/Hilacondji [BEN],BEN
1211,1.588,6.227,1.61050452046876,6.23844897046872,Aneho/Hilacondji [TGO],TGO
1212,1.613,6.325,1.60715610644532,6.33145387785157,Anfoin,TGO
1213,25.853,4.036,25.8591120160938,4.02874121878905,Ango,COD
1215,37.631,11.711,37.6300106079689,11.7073895553125,Anibesema,ETH
1216,1.203,7.768,1.19251052925781,7.76230563144532,Anie,TGO
1217,10.746,1.835,10.7480976146094,1.84243337058594,Anisoc,GNQ
1218,2.544,6.459,2.54093970867187,6.45067373417969,Aniviekome,BEN
1220,5.93,12.11,5.92616742824218,12.1138153051171,Anka,NGA
1222,7.629,7.415,7.63182804964844,7.40306214343751,Ankpa,NGA
1223,1.044,6.065,0.984741991835937,6.0230929790625,Anlo Afiadenyigba,GHA
1224,0.977,5.855,0.986319850898432,5.89154209832035,Anloga,GHA
1226,7.739,36.892,7.74988357640625,36.9038955974609,Annaba,DZA
1227,30.187,-27.915,30.2018403166798,-27.8828057738672,Annieville,ZAF
1229,31.564,30.503,31.5643097607031,30.500538461211,Anshas al-Basal,EGY
1230,31.456,30.343,31.4318452241406,30.3144631853516,Anshas al-Raml,EGY
1231,37.639,7.345,37.6507535885155,7.33521466378906,Anso,ETH
1233,50.277,-14.903,50.2778918742971,-14.9025731251172,Antalaha Ambonivohitra,MDG
1235,47.53,-18.921,47.5273937153517,-18.9002614358595,Antananarivo,MDG
1236,47.428,-18.977,47.4236707976952,-18.9693485757031,Antanety II,MDG
1237,47.315,-19.646,47.3234273379687,-19.6627104992578,Antanifotsy,MDG
1238,47.031,-19.872,47.0279837638672,-19.8627461093749,Antsirabe,MDG
1239,49.293,-12.315,49.2912612891408,-12.2880432323828,Antsiranana,MDG
1240,47.993,-14.883,47.9869316848046,-14.8773014472656,Antsohihy,MDG
1243,0.373,5.791,0.355573968046875,5.78635139320313,Anyamam,GHA
1244,7.246,7.471,7.24887043027343,7.4736432763281,Anyigba,NGA
1245,-0.543,6.373,-0.548873948515624,6.38144467800783,Anyiman,GHA
1249,32.531,1.963,32.5334703454295,1.98591997246095,Apac,UGA
1251,-0.743,5.297,-0.736786522929684,5.28516046679689,Apam,GHA
1252,-0.494,6.127,-0.498383132968748,6.13243651171875,Apedwa,GHA
1253,1.668,6.951,1.67566649070313,6.93994878898438,Aplahoue,BEN
1254,8.271,5.992,8.2808121861328,5.99734315300778,Aplapum,NGA
1255,34.075,11.805,34.0740213778125,11.8053459371094,Aqadi,SDN
1257,32.894,24.522,32.90205984582,24.528870520625,Aqlit,EGY
1262,30.932,27.309,30.9319722124609,27.3093155653124,Arab al-Hamayim,EGY
1264,31.151,30.515,31.1529122533202,30.5100099396484,Arab al-Raml,EGY
1267,39.62,12.075,39.6225271059373,12.0719926082812,Aradom,ETH
1268,7.584,5.134,7.62729252257815,5.1304682619922,Arafu,NGA
1269,5.043,7.704,5.03993784699218,7.70527461765626,Aramoko Ekiti,NGA
1271,38.538,11.611,38.5395143177736,11.6087811716016,Arb Gebeya,ETH
1272,37.554,6.034,37.5459021521092,6.00883830828125,Arba Minch,ETH
1274,-0.864,14.228,-0.864556094179688,14.2300229001172,Arbinda,BFA
1279,39.424,8.927,39.4261525820701,8.93057965449216,Arerti,ETH
1281,4.539,12.735,4.52834937089845,12.7463732363282,Argungu,NGA
1282,2.109,36.292,2.06346503871094,36.2982190033205,Arib,DZA
1283,37.827,12.476,37.8261779617578,12.4751652564844,Aribaya,ETH
1285,47.182,-19.017,47.1809731387112,-19.0067377750392,Arivonimamo I,MDG
1286,36.495,8.754,36.4979502547657,8.75330056148439,Arjo,ETH
1288,7.394,18.738,7.38677337660158,18.7392745532422,Arlit,NER
1289,27.687,10.15,27.685720093164,10.1451594139062,Armagentolis,SDN
1290,32.562,25.624,32.544839653047,25.620251879922,Armant,EGY
1291,7.43,5.838,7.43396904296872,5.84054701023438,Aro,NGA
1292,7.892,5.396,7.89608010480466,5.39081128531249,Arochukwu,NGA
1293,36.132,15.81,36.1322607680861,15.8121616460937,Aroma,SDN
1295,-3.973,6.674,-3.96903605156252,6.67215246386721,Arrah,CIV
1296,6.351,35.245,6.34680936898437,35.2598119999218,Arris,DZA
1297,38.672,7.358,38.6733190157813,7.35728765179686,Arsi Negele,ETH
1298,42.844,11.522,42.8395934038281,11.5205746129687,Arta,DJI
1299,30.83,2.843,30.8351344528126,2.86805521039064,Aru,COD
1300,30.899,3.009,30.9098319701172,3.0253496078125,Arua,UGA
1302,36.706,-3.378,36.6820328501562,-3.38654397960939,Arusha,TZA
1303,-0.329,35.832,-0.315284226171875,35.855736038828,Arzew,DZA
1304,6.768,5.37,6.76631312617187,5.35160180277343,Asa/Awara,NGA
1305,6.703,6.207,6.72719124695309,6.19962892820313,Asaba,NGA
1306,7.854,5.624,7.85730747132813,5.62258191910154,Asaga,NGA
1307,-0.661,5.859,-0.666774737148437,5.86252012539064,Asamankese,GHA
1308,-2.433,5.803,-2.43591552417968,5.80941065636718,Asankragwa,GHA
1309,-2.71,6.426,-2.71050038261719,6.42635013035155,Asanwinso,GHA
1310,4.903,12.121,4.90204540597659,12.1239325203125,Asarara,NGA
1311,39.196,7.101,39.1932406424221,7.10434614062501,Asassa,ETH
1312,41.437,11.573,41.4383055996873,11.5682460338281,Asayta,ETH
1314,39.13,7.961,39.12931948,7.95540527710939,Asela,ETH
1315,37.224,7.75,37.2231448241799,7.75444640800784,Asendabo,ETH
1316,-0.141,6.394,-0.144046430742187,6.39831486203127,Asesewa,GHA
1317,7.98,36.679,7.98058257015627,36.6801566290626,Asfour,DZA
1320,6.399,5.636,6.40054354609378,5.6366055913672,Ashaka,NGA
1321,34.669,8.649,34.6673759752344,8.64780390863278,Ashe,ETH
1322,31.161,29.199,31.1825392158595,29.2061337496874,Ashmant,EGY
1326,31.619,30.772,31.6185307440626,30.7726174166796,Ashnit al-Harabwa,EGY
1328,20.046,-33.832,20.043728115625,-33.8326527889061,Ashton,ZAF
1329,-0.505,6.261,-0.504986041132812,6.26093911316408,Asiakwa,GHA
1332,38.934,15.331,38.9450510713669,15.3492020416797,Asmara,ERI
1333,30.764,27.626,30.7649365753515,27.6255216568751,Asmu al-Arus,EGY
1336,34.544,10.064,34.543712647539,10.0582191375391,Asosa,ETH
1337,1.396,7.016,1.39101151011719,7.02427118312498,Asrama,TGO
1339,42.74,13.01,42.7408263092576,13.0082021311718,Assab,ERI
1340,0.919,6.445,0.911275362226563,6.45369977085935,Assahoun,TGO
1341,14.6,-10.855,14.5994652737499,-10.8553151146874,Assango,AGO
1343,-1.341,5.865,-1.34152781554688,5.86414782527341,Assin Bereku,GHA
1344,-1.278,5.696,-1.2757683948047,5.69580762140624,Assin Foso,GHA
1346,-2.979,7.7,-2.9789710683203,7.69917626292971,Assuefry,CIV
1348,-0.873,6.266,-0.875043513515622,6.265154104375,Asuom,GHA
1349,32.916,24.098,32.9138998799999,24.0934121171485,Aswan,EGY
1350,31.206,27.215,31.1810281078908,27.1827757109375,Asyut,EGY
1351,1.152,7.517,1.12949294082031,7.52466553699217,Atakpame,TGO
1353,39.953,10.342,39.9557138320313,10.3430647960547,Ataye,ETH
1355,-0.985,7.749,-0.984444026835943,7.75377966343753,Atebubu,GHA
1356,30.744,28.75,30.7466723439454,28.7470918810546,Atf Haydar,EGY
1363,0.09,6.23,0.0797853521484377,6.20097591382812,Atimpoku,GHA
1364,18.5,-33.561,18.4934425973437,-33.5712986194923,Atlantis,ZAF
1365,30.812,27.884,30.8051369071484,27.8982819375392,Atlidim,EGY
1366,31.34,30.761,31.3414310328907,30.764147938828,Atmida,EGY
1368,30.755,27.788,30.7556955218359,27.7860463278516,Atqa,EGY
1369,30.802,29.25,30.8062923219921,29.2357503910547,Atsa,EGY
1373,34.115,12.518,34.1109283698439,12.5149633457031,Attib,SDN
1374,1.658,6.41,1.66322101503906,6.41935070617191,Attitogon,TGO
1375,30.743,28.556,30.7427857180079,28.5563154645703,Atu al-Waqf,EGY
1376,31.203,29.389,31.2029029820312,29.3879418108203,Atwab,EGY
1377,6.25,7.082,6.26409016839844,7.06655186187499,Auchi,NGA
1378,4.6,12.893,4.60030926800782,12.8911317411328,Augie,NGA
1379,4.726,10.187,4.72194665570312,10.1867117142969,Auna,NGA
1380,9.694,8.324,9.6942577778125,8.32127317054691,Aundu,NGA
1383,2.619,6.594,2.65720977792968,6.55596309484375,Avrankou,BEN
1384,38.616,8.708,38.6131288428515,8.70871360503907,Awash Melkakunture,ETH
1385,39.339,8.411,39.3360640351173,8.40900993066409,Awash Melkasa,ETH
1386,40.164,8.994,40.1660487051561,8.99304055949217,Awash Sebat Kilo,ETH
1388,9.146,8.11,9.14383585519533,8.11099249699223,Awe,NGA
1391,7.479,6.062,7.47251719105468,6.05189234140625,Awgu,NGA
1393,31.315,31.008,31.3166194207813,31.0086924064452,Awish al-Hagar,EGY
1401,31.57,30.47,31.5685764546484,30.4694144658984,Awlad Mihanna,EGY
1402,31.745,30.801,31.7452262531251,30.7982710076562,Awlad Musa,EGY
1409,31.933,26.342,31.9417538369923,26.3253972103516,Awlad Yahya Bahri,EGY
1413,43.222,9.789,43.2231616213281,9.78412535628907,Awubere,ETH
1414,-2.239,4.868,-2.2397989801953,4.86457537191404,Axim,GHA
1416,8.359,5.253,8.35885206941415,5.24997490441408,Aya Abam,NGA
1417,8.029,5.155,8.02677972453127,5.14068964769531,Ayadeghe,NGA
1420,37.064,12.549,37.0630192217579,12.5466484517969,Ayikel,ETH
1422,0.922,14.733,0.91804118859375194,14.7343495203126,Ayorou Haoussa,NER
1424,30.351,31.198,30.4591986265624,31.1424744340625,Azab Bisintawi,EGY
1425,-4.081,5.631,-4.08329454976561,5.6311493480469,Azaguie,CIV
1426,10.187,11.674,10.1910508519532,11.6705880507031,Azare,NGA
1432,1.703,6.953,1.70454300167969,6.94710319609376,Azove,BEN
1434,6.428,7.03,6.42963620914063,7.02625447632814,Azukala,NGA
1435,6.16,6.127,6.18295606644532,6.11968612226562,Azuwa,NGA
1436,7.514,4.92,7.48336555835938,4.94761340937505,Azuzimi,NGA
1437,7.116,36.75,7.10667174773438,36.7397951645702,Azzaba,DZA
1443,3.819,10.434,3.81893863847657,10.4312823208594,Babana,NGA
1444,27.815,11.331,27.8058263284375,11.324944033125,Babanowsah,SDN
1445,7.099,35.171,7.10168365820314,35.1681335072656,Babar,DZA
1446,35.721,-4.217,35.7439953533201,-4.20734836253905,Babati,TZA
1447,11.771,12.153,11.7714322334766,12.1567636181641,Babban Gida,NGA
1448,6.045,10.129,6.04519342175782,10.1306942789844,Babban Gona,NGA
1450,42.341,9.221,42.3323105199611,9.22757255214846,Babile,ETH
1452,9.014,12.774,9.01499822570308,12.7726356165234,Babura,NGA
1453,-3.911,6.357,-3.91036303429686,6.35595168683594,Bacon,CIV
1454,2.897,6.43,2.88916934542969,6.43429112863284,Badagry,NGA
1455,5.369,14.517,5.37255240214841,14.5210613065625,Badaguichiri,NER
1456,31.488,31.152,31.4812462593358,31.1594960569141,Badawi,EGY
1457,30.895,28.926,30.8955286236718,28.9288489737891,Badhal,EGY
1458,31.486,31.037,31.4856728181641,31.0403910495312,Badin,EGY
1461,3.934,6.437,3.93250304960938,6.43737741132815,Badore/Tiye,NGA
1462,0.608,7.588,0.608604533203127,7.585245970625,Badou,TGO
1463,30.713,30.569,30.710685481836,30.5751900414064,Badr,EGY
1464,-2.23,7.695,-2.23036369839845,7.69315372796875,Badu,GHA
1467,-14.66,12.178,-14.6507081473438,12.1747291691015,Bafata,GNB
1469,1.247,9.365,1.24540965921875,9.3521349353125,Bafilo,TGO
1472,27.158,0.999,27.1563505523438,0.999723552382811,Bafwasende,COD
1476,38.892,-6.447,38.9019524123436,-6.44624204015623,Bagamoyo (Pwani),TZA
1477,33.642,-9.254,33.6416076385548,-9.25717853320313,Bagamoyo (Rungwe),TZA
1478,4.349,14.64,4.3479783576172,14.6394218185547,Bagaroua,NER
1481,2.662,6.628,2.68845952234374,6.59081821019531,Bagnigbe Lokossa,BEN
1482,-7.191,6.894,-7.19126768363281,6.89282880183596,Bagohouo,CIV
1483,4.225,11.403,4.22772923460937,11.4035231740625,Bagudo,NGA
1484,31.012,29.138,31.011976463086,29.1395287696094,Baha al-Aguz,EGY
1488,31.082,29.198,31.0821275395704,29.1968992591407,Bahbashin,EGY
1489,-7.398,6.954,-7.3990245428125,6.95558540031247,Bahe-Sebon,CIV
1493,37.385,11.594,37.3710911182812,11.5759409405469,Bahir Dar,ETH
1494,30.866,29.359,30.868651883086,29.3655315109377,Bahmu,EGY
1496,31.386,30.689,31.3835440254687,30.690164635586,Bahnia,EGY
1497,13.18,-12.618,13.1967432207031,-12.605773539414,Baia Farta,AGO
1501,15.864,-12.19,15.8611998823438,-12.1910021301171,Bailundo,AGO
1502,10.625,7.231,10.6246941315625,7.23013923523439,Baissa,NGA
1503,33.343,0.518,33.3454653801173,0.519830100195314,Baitambogwe,UGA
1505,11.435,10.853,11.4322794428906,10.8521791660546,Bajoga,NGA
1507,-12.46,14.907,-12.4550694268359,14.9026775284375,Bakel,SEN
1508,32.164,26.13,32.1461612044532,26.1193341605078,Bakhanis,EGY
1510,37.052,9.133,37.0578241886719,9.12185262507812,Bako,ETH
1511,7.425,11.56,7.42388023890626,11.5556848665625,Bakori,NGA
1512,7.512,7.859,7.50809737906251,7.87182617015623,Bakumi,NGA
1513,5.873,12.715,5.87313315148436,12.7122184465235,Bakura,NGA
1520,11.485,9.974,11.4850393359766,9.97581692488281,Bala Musa,NGA
1521,45.383,2.361,45.3848732437502,2.35878012066405,Balaad,SOM
1522,34.882,-14.969,34.9586980782032,-14.9913753517187,Balaka,MWI
1525,27.793,-12.238,27.7903492079297,-12.2700794922266,Balamba,COD
1526,32.943,24.36,32.9422142246875,24.3572969253516,Balana,EGY
1527,30.696,27.924,30.6995242416015,27.9206435246484,Balansura,EGY
1529,40,7.73,39.9983812158593,7.73085042410155,Bale,ETH
1530,45.204,4.741,45.2080537090623,4.73385181066407,Baledweyne,SOM
1531,37.528,9.136,37.519672922422,9.13038289031251,Balemi,ETH
1532,31.389,30.975,31.3889836899219,30.9791083382422,Balgay,EGY
1533,10.965,7.854,10.968687684414,7.8574864305859,Bali,NGA
1535,5.975,32.947,5.97386849093751,32.9432395327345,Balidet Amor,DZA
1538,45.763,5.769,45.7641294612499,5.76720644285158,Ballanbale,SOM
1539,2.949,13.784,2.95065747636717,13.7843307253515,Balleyara,NER
1541,14.773,-12.356,14.7736255243359,-12.3535850263672,Balombo,AGO
1544,30.843,27.372,30.8431524039453,27.3698640564452,Balut,EGY
1546,-4.426,11.403,-4.42662102371094,11.3970034155078,Bama,BFA
1549,11.533,9.698,11.5330186379297,9.69742110421877,Bambam,NGA
1550,20.674,5.764,20.6803527641797,5.76349801937498,Bambari,CAF
1552,-16.453,14.695,-16.4527763428906,14.7004788551172,Bambey,SEN
1555,57.416,-20.261,57.4126682135546,-20.2607094814062,Bambous,MUS
1562,34.727,9.759,34.7297001010156,9.75661314472654,Bamibasi,ETH
1564,-4.145,12.045,-4.14554378382811,12.0453090692969,Ban,BFA
1567,-9.299,9.18,-9.29965666882815,9.18256838253908,Banankoro,GIN
1570,-0.091,8.297,-0.0934670906249997,8.29775293562502,Banda,GHA
1571,31.412,30.57,31.401473845039,30.566333455039,Bandaf,EGY
1572,8.888,13.179,8.88953514847653,13.1809518986328,Bande Haoussa,NER
1575,-6.184,7.204,-6.18472007441406,7.20021592078127,Bandiahi,CIV
1576,1.088,13.891,1.0891406575,13.8896313511328,Bandio,NER
1578,44.343,-12.195,44.3460382832814,-12.1955768767188,Bandrani Mtsangan,COM
1579,23.614,1.24,23.6049471219922,1.23064173855469,Bandu,COD
1580,17.382,-3.315,17.3753924041796,-3.3169777009375,Bandundu,COD
1581,-4.77,10.65,-4.75397707042971,10.6338580039453,Banfora,BFA
1584,22.814,4.75,22.8293435559764,4.74264412296876,Bangassou,CAF
1587,-7.483,7.009,-7.48913497402343,7.0182294233984,Bangolo,CIV
1589,18.55,4.398,18.5378850819922,4.37446811675779,Bangui,CAF
1590,18.614,4.376,18.6218212113672,4.36734025679687,Bangui 7eme Arr.,CAF
1592,29.594,-4.316,29.5977099444142,-4.31325275207031,Bangwe,BDI
1594,31.154,29.217,31.1536598986719,29.2162639021094,Bani Adiy,EGY
1595,30.947,27.234,30.9843046518359,27.2213776666016,Bani Adiyyat,EGY
1597,30.726,28.474,30.7199698245313,28.4801968997268,Bani Ali,EGY
1603,31.636,30.572,31.6359419309765,30.5743524198438,Bani Gary,EGY
1605,30.671,28.25,30.6695575049218,28.2475893460547,Bani Ghani,EGY
1608,31.691,30.912,31.6913040908204,30.9130352030077,Bani Hasan,EGY
1609,30.865,27.901,30.8467389244531,27.8866135115625,Bani Hasan al-Shuruq,EGY
1613,30.886,28.958,30.8875564996094,28.9535777643359,Bani Hilla,EGY
1615,30.779,27.951,30.7815582129689,27.9517995260938,Bani Ibid,EGY
1617,30.708,27.974,30.7071087663672,27.9769008433204,Bani Khiyar,EGY
1619,30.792,28.758,30.7890851698828,28.7614203383204,Bani Manin,EGY
1621,30.797,28.497,30.8107922621483,28.4940919514454,Bani Mazar,EGY
1622,30.86,28.018,30.8553177452734,28.0066526708203,Bani Muhammad Sharawi,EGY
1623,30.804,28.035,30.8152589728906,28.0024298640625,Bani Muhammad Sultan,EGY
1624,31.077,27.3,31.0755660820704,27.2815444671875,Bani Muhammadiyyat,EGY
1627,30.955,27.369,30.9535240453904,27.3607670581251,Bani Rafi,EGY
1629,30.869,28.844,30.8642519744923,28.8477732409767,Bani Salih,EGY
1632,30.836,28.509,30.8339401713281,28.509924688086,Bani Samit,EGY
1633,30.634,28.185,30.6355497263671,28.1802160940235,Bani Samrag,EGY
1637,31.053,29.092,31.1070125220311,29.0751338969922,Bani Suwayf,EGY
1638,31.647,31.024,31.6471133522656,31.0234697272657,Bani Ubayd,EGY
1641,2.854,12.605,2.85172477410155,12.5939000740235,Banigoungou,NER
1643,38.388,5.919,38.3871383674998,5.91836720511718,Baniko Goteti,ETH
1644,2.444,11.297,2.43666764515626,11.2992559195703,Banikoara,BEN
1645,-16.578,13.453,-16.5786667546483,13.4544742298047,Banjul,GMB
1648,30.382,-17.384,30.3942157420312,-17.3731173989842,Banket,ZWE
1650,30.294,-23.985,30.2726847247656,-23.9700635752345,Bankuna,ZAF
1651,30.298,-23.893,30.3018822601563,-23.8886859783985,Bankuna,ZAF
1652,10.066,8.099,10.0721082092187,8.10175380660154,Bantaji,NGA
1653,1.889,8.415,1.88973957953125,8.41158347433593,Bante,BEN
1657,31.789,30.776,31.7885568824609,30.7739165621875,Bany Sarid,EGY
1659,-4.801,11.313,-4.80128095363282,11.3143040369141,Banzon,BFA
1660,15.952,5.696,15.9534538470313,5.69510546062499,Baoro,CAF
1661,-6.475,7.234,-6.47468347554688,7.2340412714844,Baoulifla,CIV
1662,27.657,-25.724,27.670214459336,-25.7387719594141,Bapo Ba Ga Mogale,ZAF
1664,30.377,13.692,30.3726024142969,13.6949242692578,Bara,SDN
1666,44.026,1.113,44.0307158659767,1.11604490011718,Baraawe,SOM
1667,35.854,-3.377,35.8549319150781,-3.37426170492188,Barabarani,TZA
1668,7.23,4.734,7.2220277140625,4.74238539707032,Barabarobara,NGA
1669,29.089,-4.074,29.0941750417186,-4.10546881289061,Baraka,COD
1670,8.994,10.035,8.99155167308588,10.0423198010156,Barakin Babele,NGA
1674,33.986,18.039,33.9914916424219,18.0141775111719,Barbar,SDN
1675,31.038,-25.778,31.0198324445313,-25.7666455133986,Barberton,ZAF
1676,24.025,-30.655,24.0256499051953,-30.6705865157031,Barcelona,ZAF
1677,43.196,3.215,43.1981846142968,3.21449271394531,Bardaale,SOM
1679,31.548,30.513,31.5345236658985,30.5029108889844,Bardin,EGY
1681,37.588,15.112,37.5873851873829,15.1063646789062,Barentu,ERI
1682,-17.231,14.698,-17.2300745189062,14.6942919386719,Bargny,SEN
1684,31.361,30.821,31.3599004807031,30.8208241975782,Barhamtush,EGY
1685,33.994,-2.819,33.9894391330859,-2.80511575843749,Bariadi,TZA
1687,5.369,35.398,5.37258399882814,35.3941783698436,Barika,DZA
1689,8.898,9.548,8.89299110824219,9.53783403085937,Barkin Ladi,NGA
1690,30.697,28.703,30.6960985771484,28.6983189790235,Barmisha,EGY
1693,-1.054,13.417,-1.05276609832032,13.4115575751953,Barsalogho,BFA
1694,33.532,14.441,33.5215715065625,14.42421499375,Barsi,SDN
1695,30.693,28.603,30.6844637833593,28.6111066339453,Bartabat,EGY
1696,31.028,29.063,31.0231814835157,29.0572547617969,Barut,EGY
1697,31.442,31.203,31.4432365310938,31.2021643632031,Basandila,EGY
1698,19.801,1.217,19.8031624340625,1.22504220457032,Basankusu,COD
1699,7.674,11.175,7.67362062753906,11.1795254389063,Basawa,NGA
1702,29.058,-4.178,29.0505422417187,-4.19260723398438,Basimukindje,COD
1704,7.133,8.962,7.12791974257813,8.96064096121091,Bassa,NGA
1705,0.778,9.257,0.778018306914062,9.26140970496096,Bassar,TGO
1706,-14.218,13.307,-14.2147911727344,13.3099225974609,Basse Santo-Su,GMB
1708,1.67,9.007,1.6633589409375,9.00790025437494,Bassila,BEN
1709,30.807,30.937,30.8137527238282,30.9407332958593,Basyun,EGY
1710,9.79,1.85,9.78021326050781,1.86376687335938,Bata,GNQ
1711,36.924,8.823,36.9222620557031,8.8240067055078,Bata Wayu,ETH
1712,7.603,12.905,7.61295535527341,12.9055401960157,Batagarawa,NGA
1715,40.009,11.195,40.0183929414846,11.1918697532813,Bati,ETH
1717,-2.918,9.883,-2.91940342148438,9.87441264839845,Batie,BFA
1721,6.208,35.523,6.16982545765626,35.5350154498827,Batna,DZA
1723,31.452,31.172,31.4542566766015,31.167827795039,Batra,EGY
1724,7.25,12.762,7.24930863484375,12.7561302991797,Batsari,NGA
1727,9.824,10.308,9.83891374429684,10.2969501891406,Bauchi,NGA
1728,8.743,12.838,8.74434174070308,12.8380251026562,Baure,NGA
1730,-0.56,5.679,-0.55590516203125,5.68180600058594,Bawjiase,GHA
1731,-0.248,11.059,-0.240356943867186,11.0617214496093,Bawku,GHA
1733,43.654,3.12,43.651538626133,3.11447908707031,Baydhaba,SOM
1735,-5.952,6.468,-5.95438011722654,6.46474562890625,Bayota,CIV
1737,31.813,26.288,31.8288955797656,26.27629787625,Bayt Dawud Sahl,EGY
1738,31.776,26.325,31.7932171229689,26.3017307284765,Bayt Khallaf,EGY
1739,31.153,29.071,31.1200947045312,29.0529004636719,Bayyad al-Arab (Bayyad al-Nasara),EGY
1741,44.449,-12.18,44.4499176404297,-12.1823638132813,Bazimini,COM
1743,13.322,10.568,13.3200021742578,10.5669925350391,Bazza,NGA
1744,22.582,-32.362,22.5836264414843,-32.3514351458983,Beaufort West,ZAF
1746,8.264,11.663,8.26077716703123,11.669443725664,Bebeji,NGA
1747,-4.013,5.909,-4.01309030222654,5.90981194695312,Becedi-Brignan,CIV
1749,-2.017,7.077,-2.0263240851953,7.08892773660155,Bechem,GHA
1751,36.353,8.454,36.3503517092578,8.45693723828123,Bedele,ETH
1753,40.785,8.926,40.77212623875,8.90310096964841,Bedesa,ETH
1754,-6.303,7.163,-6.30786043480467,7.15805058222657,Bediala,CIV
1756,48.538,-15.258,48.541166288125,-15.256193066836,Befandriana Nord,MDG
1757,34.53,9.339,34.5304834869923,9.34744874589845,Begi,ETH
1758,-0.374,6.382,-0.3771941925,6.38650560796874,Begoro,GHA
1759,-0.715,11.797,-0.738927466914062,11.7845143344531,Beguedo,BFA
1760,5.676,35.887,5.6649088339453,35.8935443715233,Beidha Bordj,DZA
1762,30.003,-22.193,29.9920294088671,-22.184578328789,Beitbridge,ZWE
1763,9.192,36.723,9.17818429902343,36.7298769235936,Beja,TUN
1765,5.059,36.737,5.04437232257811,36.7300999501173,Bejaia,DZA
1767,8.243,35.369,8.24207860687495,35.3725809323827,Bekkaria,DZA
1768,27.7,-26.282,27.7066431038281,-26.2845991501171,Bekkersdal,ZAF
1769,-1.573,6.457,-1.57766752562501,6.45401777003904,Bekwai,GHA
1770,57.752,-20.257,57.753872843867,-20.2549683825782,Bel Air-Riviere Seche,MUS
1771,7.292,4.656,7.30463066726561,4.66317768234376,Bela,NGA
1772,28.321,-24.88,28.3174969605859,-24.8861392596874,Belabela,ZAF
1775,37.533,6.917,37.5318201737497,6.91842224339845,Bele,ETH
1777,7.477,36.461,7.47735931121091,36.4623026771484,Belkheir,DZA
1778,19.315,-33.332,19.3188648483984,-33.3265745957424,Bella Vista,ZAF
1779,-6.849,6.875,-6.85021337726561,6.87486720003908,Belle-Ville,CIV
1780,0.478,34.992,0.476057184726562,34.9898303998829,Belloul,DZA
1781,44.546,-19.7,44.5462064355077,-19.7010995830469,Belo Tsiribihina,MDG
1784,-0.915,34.951,-0.916421835742185,34.9518161642577,Ben Badis,DZA
1785,2.875,36.621,2.87062559152344,36.6152596338282,Ben Chaabane,DZA
1789,7.906,36.773,7.90527880257813,36.7702150915624,Ben M'Hidi,DZA
1790,4.564,35.042,4.56195505390625,35.0363663116016,Ben Srour,DZA
1792,5.943,11.29,5.94231328234375,11.2885679784375,Bena,NGA
1793,-4.196,12.072,-4.19046313476561,12.0746690916016,Bena,BFA
1794,23.331,-6.272,23.330478726172,-6.27082520703126,Bena-Boya,COD
1795,6.438,33.108,6.44092617195315,33.1101509796482,Benaceur,DZA
1796,22.827,-4.097,22.8308442433203,-4.09910360820311,Bena-Dibele,COD
1798,24.003,-6.452,24.0007939631251,-6.4509134398047,Bena-Katomba,COD
1800,22.177,-5.141,22.1744923935938,-5.13610361714845,Bena-Leka,COD
1802,10.835,35.677,10.8364150931641,35.6754105322264,Benane Bodher,TUN
1809,13.399,-12.615,13.4068831316016,-12.5975401064454,Benguela,AGO
1812,3.606,36.681,3.59077427050781,36.6679589600391,Beni Amrane,DZA
1813,-2.957,35.268,-2.943551076875,35.2953588103125,Beni Ansar,MAR
1816,-1.441,34.863,-1.43594724972656,34.8500280951953,Beni Mester,DZA
1817,6.636,36.627,6.6378020257031,36.6273856429685,Beni Oulbane,DZA
1818,-1.249,32.052,-1.25024013210937,32.0484154732423,Beni Ounif,DZA
1819,-1.38,35.298,-1.38094387636719,35.2997728513284,Beni Saf,DZA
1820,3.309,36.236,3.30967437632811,36.2279424194921,Beni Slimane,DZA
1821,2.82,36.538,2.81034535683593,36.5178519850782,Beni Tamou,DZA
1822,5.613,6.326,5.62537997914063,6.37103547023441,Benin City,NGA
1824,2.838,36.577,2.85861778882813,36.5830104271487,Benkhelil,DZA
1827,-1.227,35.074,-1.22457028527344,35.0738653082032,Bensekrane,DZA
1829,-5.58,7.676,-5.58145428464843,7.67400726726564,Beoumi,CIV
1831,45.007,10.432,45.012667719883,10.4433986465625,Berbera,SOM
1832,15.792,4.259,15.7978434224609,4.26339923230471,Berberati,CAF
1835,-2.577,7.448,-2.58250948074219,7.45270963312501,Berekum,GHA
1836,34.852,-16.149,34.850908608125,-16.1499248561719,Bereu UA,MWI
1837,5.002,35.673,5.034269058125,35.6527232384766,Berhoum,DZA
1838,5.73,10.284,5.7319104289453104,10.2841994150391,Beri,NGA
1841,7.433,36.825,7.45754683714843,36.8379763209371,Berrahal,DZA
1843,3.761,32.826,3.76061858460938,32.8258865709374,Berriane,DZA
1844,7.376,35.92,7.37555083160157,35.9167731783202,Berriche,DZA
1845,2.92,36.14,2.91241755070312,36.1364138643358,Berrouaghia,DZA
1847,7.843,36.704,7.84475840031249,36.7028306158984,Besbes,DZA
1848,-0.973,5.456,-0.976082686484377,5.45865590476563,Besease,GHA
1851,46.857,-19.835,46.8556831236327,-19.8380117087499,Betafo,MDG
1853,27.595,-25.556,27.5932370146094,-25.5555101494141,Bethanie,ZAF
1855,28.321,-28.218,28.3091802549999,-28.2313727908593,Bethlehem Central,ZAF
1856,36.884,6.056,36.8860704983597,6.05739059824222,Beto,ETH
1857,18.513,3.063,18.5223965107421,3.05440086519531,Betou,COG
1858,46.102,-23.268,46.0978773926564,-23.2668541294922,Betroka,MDG
1859,-8.651,8.689,-8.64809786925784,8.6912539517187,Beyla,GIN
1860,30.789,-27.774,30.7942372276563,-27.7669500807812,Bhekuzulu,ZAF
1861,26.654,-32.772,26.6509441917577,-32.7699781981247,Bhofolo,ZAF
1862,29.254,0.855,29.2569277989453,0.852732533085937,Biakutu,COD
1864,-7.617,7.741,-7.61326367421873,7.73908124609377,Biankouma,CIV
1865,-3.192,6.012,-3.19144420179687,6.01194841246092,Bianouan,CIV
1866,30.988,28.928,30.9872219508593,28.925321127539,Biba,EGY
1867,13.356,-14.758,13.350206864414,-14.7647664401172,Bibala,AGO
1870,-2.315,6.451,-2.31761649203124,6.45310553761719,Bibiani,GHA
1872,38.206,10.441,38.2024034696875,10.4578911935547,Bichena,ETH
1873,8.237,12.234,8.24038483859372,12.2330404408203,Bichi,NGA
1874,6.006,9.077,6.00892171070312,9.08978474968744,Bida,NGA
1877,-3.64,6.08,-3.63530963667968,6.07590875964845,Bieby,CIV
1879,29.041,-4.317,29.0424444167187,-4.31276372285159,Biera,COD
1880,41.958,9.46,42.0075974202347,9.45012052214845,Bifitu Geda,ETH
1882,-16.23,12.797,-16.2243599955859,12.7986958729688,Bignoma,SEN
1883,31.31,-2.633,31.3112494439452,-2.63829396148438,Biharamulo Mjini,TZA
1884,30.702,28.115,30.7024906723828,28.11142049875,Bihdal,EGY
1887,35.597,9.363,35.5947411902734,9.36848045300776,Bila,ETH
1891,31.55,30.405,31.5586585413671,30.419870241914,Bilbis,EGY
1892,30.806,28.674,30.8063219004688,28.6773205935155,Bilhasa,EGY
1894,36.802,7.787,36.8000754267967,7.79558133804689,Bilida,ETH
1898,11.217,9.889,11.2148600701953,9.88464392910153,Billiri,NGA
1899,31.364,31.219,31.3122320409765,31.2243051034764,Bilqas,EGY
1904,30.902,30.679,30.9089738469531,30.684000674414,Bimam & Izbat al-Kum al-Ahmar,EGY
1905,0.05,8.856,0.0590497521093747,8.85855846035159,Bimbilla,GHA
1907,7.809,12.671,7.80756247984376,12.66918645375,Bindawa,NGA
1909,31.342,-17.312,31.3644201944532,-17.3295534832422,Bindura,ZWE
1913,4.912,13.225,4.90871957757812,13.2221725992969,Binji,NGA
1916,31.308,30.928,31.3078989391016,30.928896724297,Biqtaris,EGY
1918,3.423,36.207,3.42829262488282,36.2165148062109,Bir Ben Abed,DZA
1919,5.84,36.133,5.83975571546875,36.1319906248829,Bir El Arch,DZA
1920,8.062,34.755,8.06294125914057,34.7486371842186,Bir El Ater,DZA
1922,5.027,36.146,5.0274659641797,36.1458391447264,Bir Kasdali,DZA
1924,28.892,-2.349,28.8929365312891,-2.34826906808594,Birava,COD
1925,37.771,6.296,37.7698436626564,6.29400764765625,Birbir,ETH
1926,28.668,-2.843,28.6734986672656,-2.84069777253906,Birhala,COD
1930,3.231,35.632,3.22277237058593,35.6320930264453,Birine,DZA
1931,31.088,30.641,31.1338081565627,30.6510574552734,Birkat al-Sab,EGY
1933,30.932,30.838,30.9080397508594,30.8451429890235,Birma,EGY
1934,2.899,13.083,2.90989163742188,13.0808387251953,Birni N'Gaoure,NER
1935,5.251,13.793,5.25348710609374,13.7914125714453,Birni N'Konni,NER
1936,6.544,10.659,6.53801304343752,10.6668195191797,Birnin Gwari,NGA
1937,4.204,12.454,4.19434209738283,12.4487713216797,Birnin Kebbi,NGA
1938,9.476,11.452,9.4762744611719,11.4494130310938,Birnin Kudu,NGA
1939,10.237,12.79,10.2360032052343,12.7908481283594,Birniwa,NGA
1943,31.545,30.632,31.5421707193359,30.6401349164844,Bisha Fayid,EGY
1945,31.263,30.775,31.263018157461,30.7753109877345,Bishla,EGY
1946,27.472,-32.842,27.4455737008985,-32.8489684410937,Bisho Central,ZAF
1949,5.754,34.828,5.72420159253905,34.8499350119921,Biskra,DZA
1951,-15.622,11.863,-15.5958332386329,11.8570411696485,Bissau,GNB
1952,36.794,-2.096,36.7921196205468,-2.09882213703125,Bissil,KEN
1953,-15.45,12.23,-15.449117584414,12.2227739791016,Bissora,GNB
1957,11.486,2.083,11.4950751237109,2.08049074480469,Bitam,GAB
1960,-0.303,11.259,-0.304667751328127,11.2579841294922,Bittou,BFA
1962,31.221,31.173,31.2228105598828,31.1748047321875,Biyala,EGY
1963,9.855,37.272,9.91613964636719,37.2345085842969,Bizerte,TUN
1966,35.006,-15.763,35.0408953256639,-15.7732896941797,Blantyre,MWI
1967,-7.178,7.135,-7.18042662128907,7.13621522097655,Blenimeouin,CIV
1968,2.861,36.502,2.8267358717578,36.4757657315235,Blida,DZA
1969,1.002,8.337,0.981771153632813,8.32333363218748,Blitta,TGO
1970,26.211,-29.134,26.2230438248827,-29.1154250096094,Bloemfontein Central,ZAF
1971,-8.004,6.57,-8.00306721281249,6.57145668410159,Blolequin,CIV
1973,-11.726,7.946,-11.7373495883203,7.96642156441404,Bo,SLE
1975,-4.306,11.201,-4.32003455972658,11.1817447583985,Bobo-Dioulasso,BFA
1976,28.42,-21.972,28.4246370672657,-21.9702882308985,Bobonong,BWA
1978,-4.499,7.065,-4.49852167339842,7.06364730089845,Bocanda,CIV
1980,14.138,-12.469,14.1304607058594,-12.4632027517187,Bocoio,AGO
1981,17.47,4.32,17.4672985768751,4.31699638046876,Boda,CAF
1983,4.779,8.939,4.78057985292969,8.9385702219922,Bode Sadu,NGA
1986,7.271,4.628,7.26938197640626,4.62656850707034,Bodo,NGA
1987,-1.255,6.898,-1.25499634382813,6.89257675050782,Bodomase,GHA
1988,29.024,-25.307,29.0043843286328,-25.2940963623438,Boekenhouthoek,ZAF
1990,20.882,-0.289,20.878883205429702,-0.28101091777344,Boende,COD
1991,-14.056,10.193,-14.0328667235156,10.1772139414063,Boffa,GIN
1992,-0.149,12.97,-0.144075042382814,12.9737253334765,Bogande,BFA
1993,-14.263,16.595,-14.27605872,16.5909781676172,Boghe,MRT
1995,-6.099,6.991,-6.09278036925779,6.99757328632812,Bognonzra,CIV
1997,9.603,9.664,9.60475153726569,9.66888784109371,Bogoro,NGA
1999,-2.012,5.568,-2.01491539144531,5.56799611558596,Bogoso,GHA
2001,31.223,-24.947,31.2397979546093,-24.9857773508594,Bohlabela,ZAF
2002,26.123,-26.184,26.1324784147264,-26.1817562974999,Boikhutso,ZAF
2003,27.316,-25.611,27.3213645634765,-25.6187930132032,Boitekong,ZAF
2004,25.57,-27.64,25.5683011566407,-27.6382057353515,Boitumelong,ZAF
2005,11.023,10.546,11.0239331518359,10.5446260396093,Bojude,NGA
2006,8.047,7.342,8.04539314410153,7.34853374500001,Bojuega,NGA
2007,15.638,6.995,15.6395938889453,6.99775341375001,Bokaranga,CAF
2009,-14.279,10.94,-14.2861538839844,10.933236908125,Boke,GIN
2010,40.644,8.727,40.6430765283205,8.72443220425778,Boke Tiko,ETH
2012,8.995,9.3,8.99488853124995,9.29589783453123,Bokkos,NGA
2013,39.252,7.525,39.2514158813283,7.5278040425781,Bokoji,ETH
2014,18.357,-2.871,18.3639134276954,-2.86188032871092,Bokoro,COD
2017,22.319,-0.6,22.3113254323438,-0.607623758632812,Bokungu,COD
2019,39.751,8.65,39.7523417310548,8.6510045246484,Bole,ETH
2020,-2.489,9.04,-2.48893618257814,9.03008608816405,Bole,GHA
2021,-0.852,10.788,-0.852275787812497,10.783983224961,Bolgatanga,GHA
2031,35.133,-0.736,35.3407838378125,-0.781273183046872,Bomet,KEN
2032,18.343,1.378,18.3513982555469,1.38174359859374,Bomongo,COD
2033,30.833,-29.148,30.7754018750781,-29.131908873242,Bomvu,ZAF
2034,57.658,-20.174,57.6681296595311,-20.1899611744531,Bon Accueil,MUS
2035,38.712,6.529,38.7117350241408,6.530427555625,Bona,ETH
2036,23.691,3.826,23.6793057123438,3.81484155121094,Bondo,COD
2037,34.262,-0.107,34.2750532336716,-0.1009171053125,Bondo,KEN
2038,-2.803,8.039,-2.80075980730468,8.04069829738286,Bondoukou,CIV
2040,38.092,7.52,38.0920505194922,7.50803630835937,Bonesha,ETH
2041,36.237,7.277,36.2471097243359,7.26114937425782,Bonga,ETH
2043,-4.197,6.651,-4.20699349726563,6.65036346714844,Bongouanou,CIV
2044,-10.364,6.813,-10.3638401413672,6.81271132867187,Bongtown,LBR
2046,7.167,4.421,7.17795099761719,4.43101642421878,Bonny,NGA
2047,-6.052,6.924,-6.04386609339844,6.92564288859375,Bonon,CIV
2048,-3.594,5.275,-3.59818217554686,5.2717814063281,Bonoua,CIV
2049,-6.472,7.132,-6.47554636812503,7.12814905316408,Bonoufla,CIV
2051,25.491,-33.399,25.4849691286719,-33.3918888458591,Bontrug,ZAF
2052,-2.725,5.021,-2.71576324296877,5.01341951125,Bonyere,GHA
2054,43.186,9.941,43.1832632308984,9.93187157683592,Boorama,SOM
2055,49.188,11.262,49.1843161129686,11.2826870434766,Boosaaso,SOM
2057,0.952,21.327,0.950302322226565,21.327646113672,Bordj Badji Mokhtar,DZA
2058,4.764,36.07,4.75788600503907,36.0793085160153,Bordj Bou Arreridj,DZA
2059,1.611,35.855,1.61749390359375,35.8506369646484,Bordj Bou Naama,DZA
2060,4.891,35.894,4.892276716875,35.8979036517971,Bordj Ghdir,DZA
2061,3.727,36.73,3.71791236664063,36.7416129202731,Bordj Menaiel,DZA
2062,38.622,6.356,38.6242222603515,6.36043028007811,Bore,ETH
2063,41.29,9.34,41.2915159416406,9.33507504816407,Boreda,ETH
2066,47.626,-15.573,47.6199639043361,-15.5657102066797,Boriziny (Port Berge),MDG
2070,31.637,-25.752,31.6288579480468,-25.7451881257421,Boschfontein,ZAF
2072,19.883,4.189,19.882636181328,4.18813761074218,Bosobolo,COD
2073,17.444,6.496,17.4409690630078,6.48468534523437,Bossangoa,CAF
2074,17.64,5.268,17.6428863008984,5.26523704191405,Bossembele,CAF
2076,28.673,-26.141,28.6954737748047,-26.1299924798046,Botleng,ZAF
2077,28.69,-26.097,28.6889268360546,-26.1018470740626,Botleng,ZAF
2078,-5.307,7.844,-5.30604842925782,7.84353177179688,Botro,CIV
2079,26.731,-29.266,26.7285451960547,-29.2647279357423,Botshabelo (A),ZAF
2080,26.666,-29.214,26.7014880650391,-29.2014202751173,Botshabelo (B),ZAF
2081,26.683,-29.262,26.6847335235547,-29.2555946916407,Botshabelo (B),ZAF
2082,9.62,36.35,9.6213724304687709,36.3525762678907,Bou Arada,TUN
2083,10.549,36.533,10.5636792029298,36.5235725394922,Bou Argoub,TUN
2085,4.179,35.21,4.1730528130078,35.2084132864453,Bou Saada,DZA
2086,8.968,36.602,8.97008514105468,36.6093519116404,Bou Salem,TUN
2087,-5.744,6.987,-5.74444838386719,6.98874875839847,Bouafle,CIV
2088,-5.05,7.698,-5.03359131933596,7.69056245781249,Bouake,CIV
2089,-5.668,8.215,-5.66871964953124,8.21798986527341,Bouandougou,CIV
2090,13.765,-4.216,13.7595872480469,-4.21663020546876,Bouansa,COG
2091,5.448,36.137,5.44018233871094,36.1459406258983,Bouaouadja,DZA
2092,15.589,5.937,15.5873389864844,5.93074625300783,Bouar,CAF
2096,18.275,6.509,18.276916476367,6.50930366390628,Bouca,CAF
2097,6.362,36.697,6.35262052734376,36.6720033197656,Boucharef,DZA
2098,7.731,36.468,7.7284984973828,36.4712265781641,Bouchegouf,DZA
2099,4.29,36.804,4.36859441582031,36.7459294322655,Boudjima,DZA
2102,2.913,36.577,2.911471799375,36.5737282838672,Boufarik,DZA
2104,10.455,36.295,10.4553727007422,36.3017537843751,Bouficha,TUN
2105,5.088,36.33,5.08880634484378,36.3330213252737,Bougaa,DZA
2106,3.107,36.538,3.10361700375,36.5405150372655,Bougara,DZA
2108,0.087,34.038,0.0904216748437495,34.0401549202345,Bougtoub,DZA
2109,0.255,35.752,0.260578446171876,35.7512825675391,Bouguirat,DZA
2110,8.106,36.503,8.10496510917969,36.5045018668749,Bouhadjar,DZA
2111,-0.051,35.321,-0.0496149005078126,35.3211838230859,Bouhanifia,DZA
2112,6.411,35.43,6.41316594390627,35.4314763008983,Bouhmar,DZA
2113,3.01,36.525,2.99282618679688,36.529680716094,Bouinan,DZA
2114,3.89,36.377,3.88443812289063,36.3816092602737,Bouira,DZA
2117,1.128,36.054,1.124595744375,36.0665229472655,Boukadir,DZA
2118,8.033,35.749,8.03839254183597,35.7430587753906,Boukhadra,DZA
2121,-0.569,12.658,-0.572347076835938,12.6608930423047,Boulsa,BFA
2122,7.516,36.458,7.51511389480471,36.4581170621095,Boumahra Ahmed,DZA
2124,2.475,36.371,2.47755565050783,36.3714231076564,Boumedfaa,DZA
2127,-2.996,9.268,-2.99620259589844,9.27149232785153,Bouna,CIV
2128,-6.477,9.524,-6.48200413429686,9.52504814874999,Boundiali,CIV
2129,15.343,-1.034,15.3495090032422,-1.02567460117188,Boundji,COG
2134,2.476,36.493,2.47689569562501,36.493655378281,Bourkika,DZA
2136,-0.814,35.702,-0.812901628984373,35.7022287983986,Bousfer,DZA
2138,-1.889,12.662,-1.89359800074219,12.6608563207422,Bousse,BFA
2140,-1.08,12.911,-1.08181043328125,12.9121091307422,Boussouma,BFA
2141,8.197,36.783,8.19619625445316,36.7847143073829,Bouteldja,DZA
2142,6.231,36.757,6.22986091664065,36.7525071368358,Boutias,DZA
2144,-0.902,35.578,-0.900306423320314,35.5735448730859,Boutlelis,DZA
2146,1.236,36.231,1.2400604596875,36.2326109474609,Bouzghaia,DZA
2147,4.5,36.603,4.51112649457034,36.5899207000391,Bouzguene,DZA
2151,19.218,2.909,19.2081229112109,2.92684813933593,Bozene,COD
2154,16.381,6.317,16.3783141499609,6.31642468160158,Bozoum,CAF
2157,6.245,4.313,6.24193561218752,4.31096357019533,Brass,NGA
2158,15.263,-4.242,15.2797008719141,-4.22051464222658,Brazzaville,COG
2159,20.046,-34.533,20.0399388584766,-34.5331190398046,Bredasdorp,ZAF
2161,-0.99,5.704,-0.990966761953127,5.70624452624999,Breman Brakwa,GHA
2162,-0.881,5.635,-0.879829903046878,5.63506805179687,Breman Odoben,GHA
2163,-1.001,5.581,-0.996376104414066,5.58174554371092,Brenan Asikuma,GHA
2164,1.272,33.102,1.25812649214844,33.0959887645703,Brezina,DZA
2166,21.984,6.539,21.9893783751954,6.53634078343751,Bria,CAF
2167,-16.637,13.25,-16.6470950886719,13.270197310547,Brikama,GMB
2168,30.508,31.348,30.5067294012502,31.347440763789,Brinbal,EGY
2172,29.387,-3.081,29.3895176988281,-3.08096468339843,Bubanza,BDI
2173,12.547,-4.765,12.5453284548047,-4.76327201335938,Bucau Zau,AGO
2174,-10.043,5.883,-10.0461603315625,5.87874206738281,Buchanan,LBR
2176,30.189,1.557,30.191594893164,1.56605900042968,Budana,COD
2177,33.582,14.908,33.5889393143362,14.9077496028515,Budayna,SDN
2178,19.705,2.648,19.700748269961,2.65251260628907,Budjala,COD
2181,38.553,8.326,38.5500001437501,8.32208288374999,Buei,ETH
2183,31.714,-1.576,31.7028691273438,-1.56847509886719,Buganguzi,TZA
2184,29.027,-2.705,29.0090882144141,-2.69833934023438,Bugarama,RWA
2185,32.465,-3.235,32.461463967461,-3.24139262234374,Bugarama,TZA
2186,8.377,10.963,8.37808133214848,10.9623188904687,Bugau,NGA
2187,33.734,0.545,33.7520251990624,0.566760057304688,Bugembe,UGA
2189,32.946,-2.411,32.9661550426952,-2.39756503046875,Bugogwa,TZA
2190,6.857,4.739,6.86265700066406,4.73555346156248,Buguma,NGA
2191,28.745,-2.847,28.7553883905469,-2.83849888429687,Bugumya (Twangiza Mine),COD
2193,31.329,31.168,31.3280400486719,31.1708460414843,Buhut,EGY
2194,-1.469,8.79,-1.468510931875,8.79223419031251,Buipe,GHA
2195,29.414,-3.472,29.3909070220702,-3.34592602785157,Bujumbura,BDI
2196,30.766,3.392,30.7639890777344,3.39679570171874,Bukalwa,COD
2197,25.855,-9.198,25.8525069681641,-9.20083631308589,Bukama,COD
2198,28.864,-2.567,28.8627134114064,-2.51013780378907,Bukavu,COD
2200,5.469,12.134,5.4674854038281,12.1374498866015,Bukkuyum,NGA
2201,31.816,-1.314,31.8182442969921,-1.322310965,Bukoba,TZA
2204,28.591,-20.158,28.5708461056251,-20.1751456416016,Bulawayo,ZWE
2205,28.479,-20.214,28.5117444758205,-20.2252652239453,Bulawayo Ward 102126,ZWE
2207,38.645,7.729,38.6515401351173,7.71855526929689,Bulbula,ETH
2208,38.408,6.292,38.4102685395313,6.30268882769533,Bule,ETH
2209,36.084,10.604,36.080729031953,10.6099665659765,Bulen,ETH
2210,31.408,2.158,31.3818656571484,2.17792332937498,Buliisa,UGA
2212,36.811,6.28,36.8098213745314,6.28314126054688,Bulki,ETH
2216,26.839,-29.194,26.8106332015234,-29.196603796797,Bultfontein,ZAF
2219,27.427,-5.438,27.4206454436719,-5.44321778558595,Bulula,COD
2220,18.604,-4.544,18.5984689083594,-4.54520296394533,Bulungu,COD
2221,34.196,0.305,34.2012194956638,0.304632403671875,Bumala,KEN
2224,33.869,-2.017,33.8715721408205,-2.02113243527345,Bunda,TZA
2225,33.758,-14.196,33.7652591641798,-14.1899182603125,Bunda UA,MWI
2228,30.189,-23.201,30.2493439998436,-23.2189697739844,Bungeni,ZAF
2231,6.554,12.27,6.55277755648437,12.2687102790625,Bungudu,NGA
2232,30.271,1.607,30.2466496638281,1.5671763709375,Bunia,COD
2233,12.007,11.266,12.0052903259765,11.279977480859401,Buniyadi,NGA
2234,26.969,-10.393,26.96919063625,-10.3952770897266,Bunkeya,COD
2235,0.093,10.518,0.0972132426171879,10.5175482657813,Bunkpurugu,GHA
2236,8.541,11.701,8.54128771601566,11.6992648283203,Bunkure,NGA
2237,28.585,-2.094,28.5867217408594,-2.09499591691406,Bunyakiri,COD
2238,4.012,12.088,4.01530850898437,12.0885362360937,Bunza,NGA
2239,32.156,-2.45,32.1490837655469,-2.44464668703126,Bupandwamhela,TZA
2240,30.836,27.401,30.8352766673047,27.3991203378516,Buq,EGY
2242,45.533,9.522,45.5356686742578,9.52261441851566,Burao,SOM
2244,37.065,10.714,37.0581184908594,10.7017552333594,Bure,ETH
2246,29.556,30.906,29.5862470641406,30.89249569625,Burg al-Arab al-Gadida,EGY
2248,31.355,30.95,31.3508258621094,30.9354117514844,Burg Nur al-Hummus,EGY
2249,30.392,31.435,30.386853981875,31.4387798228515,Burg Rashid,EGY
2250,39.247,8.041,39.2460756226564,8.04737918148443,Burjawi,ETH
2251,41.565,8.822,41.5660294960155,8.8184023328125,Burka,ETH
2254,31.529,30.856,31.5302746337501,30.8570782083594,Burqin,EGY
2255,47.828,7.644,47.8310213561718,7.64173922035157,Burtinle,SOM
2258,7.237,10.617,7.23339997597658,10.6172111642188,Buruku,NGA
2260,29.742,-2.342,29.7505048351172,-2.35130137019531,Busasama,RWA
2261,31.565,31.177,31.566592949961,31.1812512783593,Busat Karim al-Din,EGY
2262,33.61,0.765,33.6235338678512,0.777704853867191,Busembatia,UGA
2264,31.043,-24.623,31.0477086520704,-24.6021477896875,Bushbuckridge,ZAF
2265,30.182,-0.549,30.1888229342188,-0.54077543433594,Bushenyi,UGA
2266,28.807,-2.436,28.8376786691408,-2.42072654523435,Bushwira,COD
2267,34.122,0.461,34.1016095901953,0.458472877929687,Busia [KEN],KEN
2269,20.888,3.344,20.8894088328907,3.34004181222656,Businga,COD
2270,33.921,0.83,33.9273689928125,0.848545841640623,Busolwe,UGA
2271,29.933,-2.306,29.9264629737891,-2.28880872988279,Busoro,RWA
2274,33.382,11.419,33.3848244861328,11.420697899375,But,SDN
2275,24.739,2.813,24.7453541264455,2.81407485742188,Buta,COD
2276,38.341,8.078,38.3759627996096,8.11914308804688,Butajira,ETH
2277,33.98,0.91,33.9600260894143,0.917231440156251,Butaleja,UGA
2278,29.731,-2.582,29.742534540664,-2.62812928410156,Butare,RWA
2279,30.096,-2.818,30.0966461758594,-2.81456243589843,Butare,BDI
2282,9.495,6.899,9.49404241132816,6.90157856835938,Buter,NGA
2284,28.254,-28.743,28.250022857461,-28.7669058342968,Butha Buthe,LSO
2285,33.964,-1.767,33.9647619200388,-1.76622788832032,Butiama,TZA
2286,29.638,-0.89,29.6378801905469,-0.884387164218748,Butogota,UGA
2287,32.696,15.468,32.693815652656,15.4681168698828,Butri,SDN
2288,28.204,-32.296,28.2003594852344,-32.3172727340234,Butterworth,ZAF
2290,46.326,8.24,46.3254487272266,8.23413498332034,Buuhoodle,SOM
2291,45.564,3.848,45.5661021216796,3.85292486222655,Buulobaarde,SOM
2293,32.104,0.023,32.1067847637502,0.0634091288671875,Buwana,UGA
2294,33.189,0.614,33.1698686400388,0.648381525312504,Buwenge,UGA
2296,33.571,0.633,33.6212767642967,0.62164794964844,Buyanga,UGA
2298,-7.003,6.252,-7.00653393390625,6.24780644066407,Buyo,CIV
2299,35.099,-15.91,35.081428154961,-15.9296272148828,Bvumbwe UA,MWI
2300,19.233,3.179,19.242111861367,3.1736544848047,Bwamanda,COD
2302,31.76,-3.027,31.7583440261329,-3.03248284058593,Bwanga,TZA
2303,7.371,9.279,7.38120345367186,9.27890542777346,Bwari,NGA
2304,34.218,-11.252,34.2222664486326,-11.2466177385937,Bweteka,MWI
2305,32.13,1.945,32.1385745962108,1.95225919691407,Bweyale,UGA
2306,14.074,-5.822,14.0741000542187,-5.8274560128125,Bwila,COD
2311,15.559,-12.852,15.5584795348047,-12.8537487614063,Caala,AGO
2312,12.204,-5.58,12.1891174136328,-5.56636540179689,Cabinda,AGO
2314,19.27,-10.142,19.2680249433203,-10.1418678370313,Cacolo,AGO
2315,15.059,-13.732,15.0549365367188,-13.7386957553906,Caconda,AGO
2316,15.741,-9.426,15.7442604628516,-9.42132773402339,Cacuso,AGO
2317,18.001,-8.771,18.0002557497655,-8.76795003199213,Cafunfo,AGO
2318,14.297,-16.273,14.3043636935547,-16.2837256512109,Cahama,AGO
2319,14.015,-13.032,14.0013614909375,-13.0244417156641,Caimbambo,AGO
2320,31.324,30.13,31.2860149588282,30.1025476452734,Cairo,EGY
2321,27.698,-31.53,27.7026843464845,-31.5334996180468,Cala,ZAF
2322,8.34,4.998,8.33634769171875,4.94374761347655,Calabar,NGA
2323,19.427,-34.236,19.4272545832812,-34.2324156088672,Caledon,ZAF
2324,15.468,-12.845,15.4702620128125,-12.8487829715625,Calenga,AGO
2325,14.9,-10.001,14.8958600896875,-10.0016562619922,Calulo,AGO
2326,15.372,-8.19,15.3728921616406,-8.18796967332031,Camabatela,AGO
2328,20.169,-11.434,20.1678497781249,-11.435692483086,Camanongue,AGO
2330,-16.03,12.081,-16.0321419042578,12.0671266179688,Canchungo,GNB
2331,16.432,-9.784,16.4311382955079,-9.78996536636717,Cangandala,AGO
2332,38.692,-14.941,38.6933878209766,-14.9359039926172,Canhona,MOZ
2333,18.534,-33.969,18.582106242539,-34.0172221317577,Cape Town,ZAF
2334,-1.272,5.139,-1.27343572671875,5.13263744636719,Cape Coast,GHA
2335,32.765,-15.746,32.7710596141017,-15.7436664869922,Carangache,MOZ
2336,40.217,-14.917,40.2229630496095,-14.9136537016016,Carapira,MOZ
2337,-10.627,6.375,-10.636807745,6.36356158898438,Careysburg,LBR
2339,15.876,4.944,15.8741958836719,4.94397823351562,Carnot,CAF
2340,39.911,-14.377,39.9165097490234,-14.3732506196875,Caroa,MOZ
2342,31.015,-24.734,31.0239722740234,-24.7228956839845,Casteel,ZAF
2343,16.224,-12.564,16.2252289417187,-12.5622575201953,Catchiungo,AGO
2344,13.496,-12.514,13.497063831289,-12.5092380158984,Catumbela (sul),AGO
2345,13.666,-8.579,13.6628514653125,-8.58239992218752,Caxito,AGO
2346,22.905,-11.901,22.9076004280078,-11.8976963366016,Cazombo,AGO
2347,-4.419,6.247,-4.42081474558593,6.2475943676172,Cechi,CIV
2348,15.121,-11.363,15.105411277539,-11.3564322765234,Cela,AGO
2349,30.727,-30.238,30.7132646199218,-30.2575906050781,Cele,ZAF
2350,57.725,-20.198,57.7233321502734,-20.196180305664,Centre de Flacq,MUS
2351,19.313,-33.367,19.3124323580078,-33.3668807932423,Ceres,ZAF
2352,-1.105,35.336,-1.10652580078125,35.3262126913281,Chaabet Elham,DZA
2354,39.459,9.537,39.4591150423827,9.54083600906257,Chacha,ETH
2355,5.601,13.764,5.59832466824218,13.7623104110156,Chadawa,NGA
2356,5.186,10.082,5.18475340019532,10.0800026781641,Chafo,NGA
2357,36.503,10.957,36.501758580039,10.9585862411328,Chagni,ETH
2359,39.782,-5.235,39.7685774534375,-5.24543091550781,Chake Chake,TZA
2361,32.564,-26.034,32.5559851244922,-25.9881765624609,Chali,MOZ
2362,38.353,-6.639,38.3534835541796,-6.64286775953125,Chalinze,TZA
2363,-0.135,8.698,-0.135779224335937,8.69538855273435,Chamba,GHA
2364,28.074,-12.631,28.0679450686329,-12.6392081182422,Chambishi,ZMB
2365,6.588,9.552,6.5784967570703,9.54161548656249,Chanchaga,NGA
2366,38.748,9.3,38.7531883936718,9.30495696191409,Chancho,ETH
2368,27.122,-25.419,27.1161924010155,-25.4293472396094,Chaneng,ZAF
2369,38.03,-5.42,38.0210432480469,-5.42613909476562,Chanika,TZA
2371,38.988,-15.832,38.9872325328906,-15.8326306125,Chapala,MOZ
2372,7.729,12.67,7.72895052839844,12.6704004383204,Charanchi,NGA
2373,2.805,34.621,2.80021502050782,34.6173442217578,Charef,DZA
2375,31.767,-2.637,31.7659084395313,-2.63816914972657,Chato,TZA
2376,30.155,-23.2,30.1550380509376,-23.1979305470703,Chavani,ZAF
2378,7.741,36.757,7.73980860761719,36.7534240609374,Chebaitia Mokhtar,DZA
2382,7.019,35.051,7.00020223484377,35.0382877041797,Chechar,DZA
2384,39.95,10.542,39.9352813318359,10.5510247433594,Chefa Robit,ETH
2387,39.124,8.969,39.1240746010155,8.9704850696485,Chefedonsa,ETH
2388,1.342,36.202,1.34692367058594,36.1938774031641,Chegga,DZA
2389,30.144,-18.135,30.1331414070313,-18.1164681354688,Chegutu,ZWE
2391,38.153,6.005,38.153226043164,6.00503296351565,Chelelektu,ETH
2392,41.603,9.386,41.5602443556249,9.39892794003906,Chelenko,ETH
2393,6.17,36.165,6.16658134492188,36.1624922349611,Chelghoum Laid,DZA
2394,3.417,35.941,3.4154624423828,35.9393798722267,Chellalet El Adhaoura,DZA
2395,34.887,-17.166,34.8886771518751,-17.1632285791015,Chemba sede,MOZ
2397,57.475,-20.489,57.4746680037498,-20.4916095409766,Chemin Grenier,MUS
2399,6.647,35.662,6.64728280546876,35.6661399316798,Chemora,DZA
2401,37.575,6.254,37.5763045739846,6.24895115582029,Chenicha,ETH
2403,4.79,36.133,4.79483039058595,36.151775767734,Cherchar,DZA
2404,2.178,36.595,2.17801680878906,36.5959356015626,Cherchell,DZA
2405,39.092,6.543,39.092849120039,6.53140197933593,Chere,ETH
2406,7.754,35.266,7.75509747175783,35.272364955664,Cheria,DZA
2407,39.922,10.6,39.9215135183595,10.6003795764453,Cherti Dabeso,ETH
2411,8.971,7.42,8.97546240144529,7.41082174632812,Chia,NGA
2413,13.692,-15.186,13.6901205815625,-15.1861285189453,Chibia,AGO
2416,28.09,-12.844,28.0953934101953,-12.8479541431641,Chibuluma,ZMB
2420,33.541,-24.98,33.5544386901169,-24.9667890360938,Chicumbane,MOZ
2421,40.016,11.608,40.0168906284375,11.6059157537109,Chiefera,ETH
2422,2.715,36.466,2.73551157382814,36.4454606528125,Chiffa,DZA
2424,34.817,-16.061,34.8009605757813,-16.0440186563282,Chikwawa,MWI
2425,28.937,-8.488,28.9345109128906,-8.48469087867188,Chilengi,ZMB
2426,27.843,-12.366,27.8294994159375,-12.3626474483985,Chililabombwe,ZMB
2427,34.016,-8.858,34.021990997578,-8.85692172093747,Chimala,TZA
2429,10.421,11.519,10.4196993624219,11.5193999646484,Chinade,NGA
2430,42.608,9.508,42.6080203681643,9.50638557691403,Chinaksen,ETH
2431,27.861,-12.56,27.8402920849218,-12.5627150480078,Chingola,ZMB
2432,30.196,-17.374,30.1866976586327,-17.3937639849219,Chinhoyi,ZWE
2433,32.079,-10.537,32.0681456589452,-10.5548847251562,Chinsali,ZMB
2434,34.166,-11.843,34.1671840290235,-11.8323932273047,Chintheche UA,MWI
2435,32.644,-13.633,32.6526112327342,-13.6617927851953,Chipata,ZMB
2436,15.791,-13.822,15.7886971991406,-13.8187527952734,Chipindo,AGO
2437,32.621,-20.187,32.633595427656,-20.1821679199999,Chipinge,ZWE
2438,34.515,-13.99,34.513551875664,-13.9919441130859,Chipoka UA,MWI
2439,-2.183,7.396,-2.18347760214844,7.39569846480469,Chiraa,GHA
2440,31.676,-21.038,31.6803472132031,-21.036472308164,Chiredzi,ZWE
2441,36.187,7.129,36.1889403162893,7.12515266699217,Chiri,ETH
2442,40.868,9.087,40.8668881042969,9.08731537449217,Chiro,ETH
2443,8.413,11.642,8.40371115449221,11.6369330264062,Chiromawa,NGA
2444,28.845,-16.029,28.8453080142187,-16.0295759286718,Chirundu,ZMB
2445,33.366,-24.93,33.3596807166797,-24.93474828875,Chissano Sede,MOZ
2448,33.254,-9.701,33.2767843809374,-9.70516758789058,Chitipa,MWI
2450,30.905,-19.011,30.8953951038281,-19.0030219662111,Chivhu,ZWE
2451,32.836,-9.26,32.8336910861329,-9.26041215378905,Chiwezi,TZA
2452,1.342,36.172,1.25756034246094,36.1981212605863,Chlef,DZA
2454,32.987,-24.527,32.9982837409768,-24.5297896633985,Chokwe,MOZ
2455,39.901,8.14,39.9005767734767,8.13838404429688,Chole,ETH
2456,26.992,-16.803,26.97877811125,-16.8248533769532,Choma,ZMB
2457,13.94,-13.576,13.9404058709375,-13.57635671375,Chongoroi,AGO
2458,28.674,-15.326,28.673847723125,-15.3316420186328,Chongwe,ZMB
2460,37.223,12.336,37.2247735844922,12.3314092960156,Chuahit,ETH
2461,37.69,-0.349,37.6626630461327,-0.31794055828125,Chuka,KEN
2462,38.615,7.05,38.6077192828905,7.0214523673828,Chuko,ETH
2463,11.712,9.705,11.716779167539,9.70781568925778,Chum,NGA
2464,29.113,-2.88,29.121308386797,-2.88946790363281,Cibitoke,BDI
2465,34.881,-19.761,34.8486992249611,-19.817190787539,Cidade da Beira,MOZ
2466,39.918,-16.213,39.9011647939842,-16.2204079758594,Cidade de Angoche,MOZ
2467,33.547,-24.695,33.53104522625,-24.6864617995703,Cidade de Chibuto,MOZ
2468,33.483,-19.125,33.4819039293748,-19.1132947610938,Cidade de Chimoio,MOZ
2469,36.538,-14.806,36.5297471626171,-14.8090950658203,Cidade de Cuamba,MOZ
2470,34.74,-19.626,34.742345725469,-19.6140253719922,Cidade de Dondo,MOZ
2471,36.988,-15.479,36.9774155273436,-15.468031403164,Cidade de Gurue,MOZ
2472,40.733,-15.036,40.7303510066403,-15.0405600241797,Cidade de Ilha de Mocambique,MOZ
2474,40.731,-15.038,40.7303510066403,-15.0405600241797,Cidade de Ilha de Mocambique (Lumbo),MOZ
2476,35.261,-13.303,35.2513298056642,-13.3051244998047,Cidade de Lichinga,MOZ
2477,32.876,-18.941,32.8764856670705,-18.9358072852733,Cidade de Manica,MOZ
2478,32.592,-25.758,32.5726460313283,-25.9372099126172,Cidade de Maputo,MOZ
2481,36.981,-16.853,36.9920664334372,-16.8340404659764,Cidade de Mocuba,MOZ
2483,40.69,-14.595,40.6819851500782,-14.5531923860937,Cidade de Nacala Porto,MOZ
2484,39.272,-15.127,39.2483714033594,-15.1204096033204,Cidade de Nampula,MOZ
2486,36.921,-17.834,36.8890587636719,-17.865103955,Cidade de Quelimane,MOZ
2487,36.915,-17.885,36.9116154624219,-17.887270221289,Cidade de Quelimane (Bairro Icidua),MOZ
2488,33.617,-16.142,33.5847177741406,-16.1604806402735,Cidade de Tete (Leste),MOZ
2490,33.792,-25.009,33.6444086921875,-25.0471449464453,Cidade de Xai-Xai,MOZ
2492,0.026,11.096,0.01482476515625,11.1046641930859,Cinkassi/Cinkanse [TGO],TGO
2493,0.001,35.609,-0.00136546539062501,35.6048472265234,Cite Benchenine,DZA
2494,26.312,-26.331,26.2989998360937,-26.3277192266797,Coligny,ZAF
2496,2.179,6.812,2.17205641871093,6.80446679492188,Colli Bossouvi,BEN
2497,6.578,36.968,6.5564896560547,37.0042691783206,Collo,DZA
2498,1.88,6.409,1.88253444230469,6.40481911777343,Come,BEN
2500,-13.517,9.703,-13.6527392726172,9.56553877214844,Conakry,GIN
2501,14.334,-11.105,14.3360476940234,-11.1104004223438,Conda,AGO
2502,36.103,13.853,36.1075991879688,13.8568855191406,Conry,SDN
2503,6.627,36.364,6.65270734257815,36.3423385812892,Constantine,DZA
2504,1.55,9.838,1.54683635167969,9.83918872980466,Copargo,BEN
2505,2.355,6.501,2.4279473041797,6.38028695597656,Cotonou,BEN
2507,2.344,7.224,2.34178025226561,7.217780694375,Cove,BEN
2511,35.72,-17.978,35.7128925420312,-17.9767219324218,Cuacua,MOZ
2512,18.043,-9.14,18.0451664466796,-9.14529812480466,Cuango luzamba,AGO
2513,14.245,-13.035,14.2561698250391,-13.036849188164,Cubal,AGO
2515,14.616,-6.116,14.6250441011328,-6.12270045019531,Cuimba,AGO
2516,27.457,-32.559,27.4434444488672,-32.5641741671483,Cumakala,ZAF
2517,28.913,-2.47,28.9143656426563,-2.47890149222657,Cyangugu,RWA
2518,7.639,11.373,7.63616643894531,11.368837563125,Dabai,NGA
2519,-4.436,8.365,-4.42877593859377,8.36499000113277,Dabakala,CIV
2521,37.757,12.976,37.7641898695702,12.9834040604687,Dabat,ETH
2522,-11.114,10.735,-11.108112740625,10.744367857422,Dabola,GIN
2523,-4.378,5.32,-4.37620203132812,5.32657394000003,Dabou,CIV
2524,-6.041,5.551,-6.03698401542966,5.54823658835938,Dabouyo,CIV
2526,11.499,10.29,11.5003925710548,10.2924762885547,Dadin Kowa,NGA
2529,-6.815,5.126,-6.81152229773436,5.12443971023439,Dagadji,CIV
2531,-15.504,16.512,-15.5062617496875,16.5138914451172,Dagana,SEN
2532,4.418,12.569,4.42084159332035,12.5782552486327,Dagere,NGA
2533,29.97,-27.141,29.9695070350001,-27.1296394748047,Daggakraal,ZAF
2534,7.803,36.734,7.80158385121092,36.7343654251172,Daghoussa,DZA
2535,30.813,28.69,30.8131894867188,28.6902546881642,Dahamru,EGY
2536,8.824,35.944,8.82355728601562,35.9438214370701,Dahmani,TUN
2537,31.408,30.402,31.4077786005859,30.4051610325781,Dahmasha,EGY
2538,1.476,35.415,1.47544732945313,35.4174233848045,Dahmouni,DZA
2539,-15.477,15.35,-15.4795777497265,15.3509024224609,Dahra,SEN
2540,30.803,28.609,30.8023155520703,28.6049089912891,Dahrut,EGY
2543,-5.475,5.659,-5.47517913363282,5.66089763847653,Dairo,CIV
2544,37.692,7.461,37.6909967345314,7.46341045382812,Dajura,ETH
2545,-17.458,14.738,-17.392403373828,14.7619788177344,Dakar,SEN
2546,9.872,12.352,9.86949396742183,12.351291038086,Dakayama,NGA
2547,4.06,11.647,4.06103637304684,11.646013553789,Dakingari,NGA
2548,6.767,14.511,6.7669091532031,14.5091422032812,Dakoro,NER
2549,-6.067,5.238,-6.06953639191406,5.23799231214841,Dakpadou,CIV
2551,12.375,8.569,12.3784467291797,8.57258830675788,Dalahi,NGA
2552,31.134,29.185,31.1339963029298,29.1867028266796,Dalas,EGY
2553,30.7,27.637,30.6950250135547,27.644684371797,Dalga,EGY
2555,30.81,28.816,30.8137274005469,28.8126027483594,Dalhanis,EGY
2557,-6.455,6.876,-6.4506280966797,6.87364181562498,Daloa,CIV
2558,38.243,7.791,38.2446568911719,7.78926284636717,Dalocha,ETH
2559,33.42,14.621,33.4155111354296,14.6219397016016,Dalwat al-Bahar,SDN
2560,11.333,11.678,11.3346958095313,11.6773558946875,Damagum,NGA
2562,31.177,30.67,31.1758915442187,30.6692732469921,Damanhur al-Wahsh,EGY
2563,31.324,30.809,31.3264888248437,30.8052953183203,Damas,EGY
2566,11.956,11.727,11.9640016846094,11.7487881350782,Damaturu,NGA
2568,15.135,-6.682,15.1273497238671,-6.67489069437501,Damba,AGO
2569,0.184,8.061,0.177979839921875,8.07160335410165,Dambai,GHA
2570,10.709,11.679,10.7077630888281,11.6789751189063,Damban,NGA
2571,8.515,12.433,8.51672803398443,12.4335737902734,Dambatta,NGA
2574,31.369,31.139,31.3655478983984,31.127915474999998,Damira,EGY
2577,-1.819,9.083,-1.81841869691406,9.08284987949224,Damongo,GHA
2579,30.793,31.282,30.80400399125,31.3419350062891,Damru,EGY
